"Interval|""ms""|0|0|1","Utc|""ms""|0|0|1","RearRight|""""|0.0|5.0|50","RearLeft|""""|0.0|5.0|50","FrontLeft|""""|0.0|5.0|50","FrontRight|""""|0.0|5.0|50","Battery|""Volts""|0.0|20.0|1",,"AccelX|""G""|-3.0|3.0|25","AccelY|""G""|-3.0|3.0|25","AccelZ|""G""|-3.0|3.0|25","Yaw|""Deg/Sec""|-120|120|25","Pitch|""Deg/Sec""|-120|120|25","Roll|""Deg/Sec""|-120|120|25","RPM|""RPM""|0|12500|50","TPS|""%""|0.0|100.0|50","InjectorPW|""ms""|0.0|100.0|25","Baro|""kPa""|0|105|1","MAP|""kPa""|0|255|25","AFR|""ratio""|0.0|20.0|25","IAT|""C""|-20|205|25","EngineTemp|""C""|0|200|1","OilPressure|""psi""|0.0|200.0|50","OilTemp|""F""|0|300|1","FuelTemp|""C""|0|1024|1","Latitude|""Degrees""|-180.0|180.0|10","Longitude|""Degrees""|-180.0|180.0|10","Speed|""mph""|0.0|150.0|10","Distance|""mi""|0.0|0.0|10","Altitude|""ft""|0.0|4000.0|10","GPSSats|""""|0|20|10","GPSQual|""""|0|5|10","GPSDOP|""""|0.0|20.0|10","LapCount|""""|0|0|10","LapTime|""Min""|0.0|0.0|10","Sector|""""|0|0|10","SectorTime|""Min""|0.0|0.0|10","PredTime|""Min""|0.0|0.0|10","ElapsedTime|""Min""|0.0|0.0|10","CurrentLap|""""|0|0|10"
11189,0,0.51,0.88,0.48,0.4,,Min AccelX,,,,,,,4036,0,,,,,,,-9.43,,,,,,,,,,,,,,,,,
11209,0,0.51,0.88,0.48,0.4,,-1.49,-0.02,-0.06,-1.02,0,1,-1,4030,0,3.96,,15,22.01,25,,-9.43,,,,,,,,,,,,,,,,,
11229,0,0.51,0.88,0.48,0.39,,Min AccelY,,,,,,,4030,0,,,,,,,-9.43,,,,,,,,,,,,,,,,,
11249,0,0.51,0.88,0.48,0.4,,-1.32,-0.02,-0.05,-1.11,0,1,0,3966,0,3.92,,40,22.01,25,,-9.43,,,0,0,0,0,0,0,0,0,0,0,-1,0,0,0,0
11269,0,0.51,0.89,0.48,0.41,,Min AccelZ,,,,,,,3966,0,,,,,,,-11.7,,,,,,,,,,,,,,,,,
11289,0,0.51,0.88,0.49,0.41,,-1.71,-0.03,-0.07,-1.04,0,0,0,4025,0,3.93,,40,22.01,25,,-11.7,,,,,,,,,,,,,,,,,
11309,0,0.51,0.89,0.48,0.41,,Max AccelX,,,,,,,4025,0,,,,,,,-11.7,,,,,,,,,,,,,,,,,
11329,0,0.51,0.89,0.48,0.4,,1.72,0.03,-0.05,-1.08,0,0,0,4025,0,3.93,,16,22.01,25,,-11.7,,,,,,,,,,,,,,,,,
11349,0,0.51,0.89,0.48,0.41,,Max AccelY,,,,,,,4046,0,,,,,,,-11.7,,,0,0,0,0,0,0,0,0,0,0,-1,0,0,0,0
11369,0,0.52,0.9,0.49,0.4,,1.39,-0.02,-0.04,-1.1,0,0,0,4046,0,3.92,,0,22.01,25,,-14.85,,,,,,,,,,,,,,,,,
11389,0,0.51,0.89,0.48,0.41,,Max AccelZ,,,,,,,4081,0,,,,,,,-14.85,,,,,,,,,,,,,,,,,
11409,0,0.51,0.89,0.49,0.41,,1.06,0.01,-0.07,-1.04,0,0,0,4081,0,3.93,,25,22.01,25,,-14.85,,,,,,,,,,,,,,,,,
11429,0,0.51,0.89,0.49,0.41,,Max Speed,,,,,,,4081,0,,,,,,,-14.85,,,,,,,,,,,,,,,,,
11449,0,0.51,0.89,0.48,0.41,,80.56,0,-0.04,-1.08,0,0,0,4028,0,3.89,,0,22.01,25,,-14.85,,,0,0,0,0,0,0,0,0,0,0,-1,0,0,0,0
11469,0,0.51,0.9,0.49,0.4,,Max ECT,,,,,,,4028,0,,,,,,,-13.9,,,,,,,,,,,,,,,,,
11489,0,0.51,0.9,0.49,0.4,,91,-0.03,-0.06,-1.04,0,0,0,4035,0,3.88,,0,22.01,25,,-13.9,,,,,,,,,,,,,,,,,
11509,0,0.52,0.9,0.49,0.41,,Max Oil P,,,,,,,4035,0,,,,,,,-13.9,,,,,,,,,,,,,,,,,
11529,0,0.52,0.9,0.48,0.41,,69.15,0.01,-0.08,-1.01,0,0,-1,4035,0,3.88,,0,22.01,25,,-13.9,,,,,,,,,,,,,,,,,
11549,0,0.52,0.9,0.49,0.41,,Max Oil T,,,,,,,4027,0,,,,,,,-13.9,,,0,0,0,0,0,0,0,0,0,0,-1,0,0,0,0
11569,0,0.52,0.9,0.49,0.41,,106,-0.01,-0.06,-1.1,0,0,0,4027,0,3.86,,16,22.01,25,,-16.62,,,,,,,,,,,,,,,,,
11589,0,0.52,0.9,0.49,0.41,,Max RPM,,,,,,,3995,0,,,,,,,-16.62,,,,,,,,,,,,,,,,,
11609,0,0.52,0.9,0.49,0.41,,10890,0.01,-0.08,-1.01,0,0,0,3995,0,3.83,,0,22.01,25,,-16.62,,,,,,,,,,,,,,,,,
11629,0,0.52,0.9,0.49,0.41,,Max Batt,,,,,,,3995,0,,,,,,,-16.62,,,,,,,,,,,,,,,,,
11649,0,0.52,0.9,0.49,0.41,,14.86,0.06,-0.05,-1.04,0,0,0,4006,0,3.82,,0,22.01,25,,-16.62,,,0,0,0,0,0,0,0,0,0,0,-1,0,0,0,0
11669,0,0.52,0.9,0.49,0.41,,AccelX std,,,,,,,4006,0,,,,,,,-9.58,,,,,,,,,,,,,,,,,
11689,0,0.52,0.91,0.49,0.41,,0.735432367,0.04,-0.04,-1.08,0,0,0,4027,0,3.82,,0,22.01,25,,-9.58,,,,,,,,,,,,,,,,,
11709,0,0.53,0.89,0.49,0.41,,AccelY std,,,,,,,4027,0,,,,,,,-9.58,,,,,,,,,,,,,,,,,
11729,0,0.52,0.91,0.49,0.41,,0.275809028,0.06,-0.07,-1,0,0,0,4027,0,3.82,,9,22.01,25,,-9.58,,,,,,,,,,,,,,,,,
11749,0,0.52,0.91,0.49,0.4,,AccelZ std,,,,,,,3992,0,,,,,,,-9.58,,,0,0,0,0,0,0,0,0,0,0,-1,0,0,0,0
11769,0,0.52,0.91,0.49,0.41,,0.275298876,0.1,-0.04,-1.05,0,0,0,3992,0,3.78,,9,22.01,25,,-14.98,,,,,,,,,,,,,,,,,
11789,0,0.52,0.91,0.49,0.42,,Avg AccelX,,,,,,,4004,0,,,,,,,-14.98,,,,,,,,,,,,,,,,,
11809,0,0.53,0.92,0.49,0.41,,0.002246923,0.08,-0.03,-1.1,0,0,0,4004,0,3.77,,0,22.01,25,,-14.98,,,,,,,,,,,,,,,,,
11829,0,0.53,0.91,0.49,0.41,,Avg AccelY,,,,,,,4004,0,,,,,,,-14.98,,,,,,,,,,,,,,,,,
11849,0,0.52,0.91,0.49,0.41,,-0.060754653,0.1,-0.05,-1,0,0,0,4017,0,6.66,,8,22.01,25,,-14.98,,,0,0,0,0,0,0,0,0,0,0,-1,0,0,0,0
11869,0,0.53,0.91,0.49,0.41,,Avg AccelZ,,,,,,,4017,0,,,,,,,-17.55,,,,,,,,,,,,,,,,,
11889,0,0.52,0.92,0.49,0.41,,-0.866719901,0.05,-0.03,-1.11,0,0,0,4073,0,3.78,,8,22.01,25,,-17.55,,,,,,,,,,,,,,,,,
11909,0,0.53,0.92,0.5,0.41,,,,,,,,,4073,0,,,,,,,-17.55,,,,,,,,,,,,,,,,,
11929,0,0.53,0.92,0.49,0.42,,,0.04,-0.05,-0.96,0,0,0,4073,0,3.78,,0,22.01,25,,-17.55,,,,,,,,,,,,,,,,,
11949,0,0.53,0.91,0.5,0.42,,,,,,,,,4065,0,,,,,,,-17.55,,,0,0,0,0,0,0,0,0,0,0,-1,0,0,0,0
11969,0,0.53,0.92,0.5,0.41,,,0.04,-0.02,-0.99,0,0,0,4065,0,3.77,,0,22.01,25,,-16.35,,,,,,,,,,,,,,,,,
11989,0,0.53,0.92,0.5,0.41,,,,,,,,,3995,0,,,,,,,-16.35,,,,,,,,,,,,,,,,,
12009,0,0.53,0.92,0.5,0.41,,,0.01,-0.01,-1.03,0,0,0,3995,0,6.58,,9,22.01,25,,-16.35,,,,,,,,,,,,,,,,,
12029,0,0.53,0.92,0.5,0.41,,,,,,,,,3995,0,,,,,,,-16.35,,,,,,,,,,,,,,,,,
12049,0,0.53,0.92,0.5,0.42,14.35,,0.02,-0.05,-0.95,0,0,-1,4030,0,6.57,70,7,22.01,25,44,-16.35,44,22,0,0,0,0,0,0,0,0,0,0,-1,0,0,0,0
12069,0,0.53,0.92,0.5,0.42,,,,,,,,,4030,0,,,,,,,-16.98,,,,,,,,,,,,,,,,,
12089,0,0.53,0.93,0.5,0.42,,,0.01,-0.01,-1.02,0,0,0,4000,0,6.5,,7,22.01,25,,-16.98,,,,,,,,,,,,,,,,,
12109,0,0.54,0.93,0.51,0.41,,,,,,,,,4000,0,,,,,,,-16.98,,,,,,,,,,,,,,,,,
12129,0,0.53,0.93,0.5,0.42,,,-0.02,-0.01,-1.02,0,0,-1,4000,0,6.5,,0,22.01,25,,-16.98,,,,,,,,,,,,,,,,,
12149,0,0.53,0.92,0.5,0.42,,,,,,,,,4001,0,,,,,,,-16.98,,,0,0,0,0,0,0,0,0,0,0,-1,0,0,0,0
12169,0,0.53,0.93,0.5,0.42,,,0,-0.04,-0.96,0,0,-1,4001,0,3.68,,9,22.01,25,,-14.55,,,,,,,,,,,,,,,,,
12189,0,0.54,0.93,0.5,0.42,,,,,,,,,3938,0,,,,,,,-14.55,,,,,,,,,,,,,,,,,
12209,0,0.53,0.93,0.5,0.42,,,0,-0.01,-1,0,0,-1,3938,0,3.66,,8,22.01,25,,-14.55,,,,,,,,,,,,,,,,,
12229,0,0.54,0.93,0.5,0.42,,,,,,,,,3938,0,,,,,,,-14.55,,,,,,,,,,,,,,,,,
12249,0,0.53,0.93,0.5,0.42,,,-0.04,-0.01,-1.02,0,0,-1,4014,0,3.65,,0,22.01,25,,-14.55,,,0,0,0,0,0,0,0,0,0,0,-1,0,0,0,0
12269,0,0.54,0.93,0.5,0.42,,,,,,,,,4014,0,,,,,,,-11.88,,,,,,,,,,,,,,,,,
12289,0,0.53,0.93,0.51,0.42,,,-0.01,-0.04,-0.92,0,0,-1,4045,0,3.66,,0,22.01,25,,-11.88,,,,,,,,,,,,,,,,,
12309,0,0.54,0.94,0.51,0.42,,,,,,,,,4045,0,,,,,,,-11.88,,,,,,,,,,,,,,,,,
12329,0,0.54,0.93,0.51,0.42,,,-0.03,-0.01,-1.04,0,0,0,4045,0,3.66,,13,22.01,25,,-11.88,,,,,,,,,,,,,,,,,
12349,0,0.54,0.93,0.51,0.42,,,,,,,,,4085,0,,,,,,,-11.88,,,0,0,0,0,0,0,0,0,0,0,-1,0,0,0,0
12369,0,0.53,0.93,0.5,0.42,,,-0.05,-0.02,-1,0,0,-1,4085,0,3.66,,15,22.01,25,,-10.4,,,,,,,,,,,,,,,,,
12389,0,0.54,0.93,0.5,0.42,,,,,,,,,4067,0,,,,,,,-10.4,,,,,,,,,,,,,,,,,
12409,0,0.53,0.94,0.51,0.42,,,-0.02,-0.02,-1.03,0,0,0,4067,0,3.65,,14,22.01,25,,-10.4,,,,,,,,,,,,,,,,,
12429,0,0.54,0.94,0.51,0.42,,,,,,,,,4067,0,,,,,,,-10.4,,,,,,,,,,,,,,,,,
12449,0,0.54,0.93,0.51,0.42,,,-0.08,-0.04,-1.05,0,0,0,4045,0,3.61,,16,22.01,25,,-10.4,,,0,0,0,0,0,0,0,0,0,0,-1,0,0,0,0
12469,0,0.54,0.94,0.51,0.42,,,,,,,,,4045,0,,,,,,,-12.23,,,,,,,,,,,,,,,,,
12489,0,0.54,0.94,0.51,0.42,,,-0.01,-0.07,-0.95,0,0,-1,4046,0,3.6,,16,22.01,25,,-12.23,,,,,,,,,,,,,,,,,
12509,0,0.54,0.94,0.51,0.42,,,,,,,,,4046,0,,,,,,,-12.23,,,,,,,,,,,,,,,,,
12529,0,0.54,0.94,0.51,0.42,,,-0.04,-0.06,-1.07,0,0,-1,4046,0,3.6,,9,22.01,25,,-12.23,,,,,,,,,,,,,,,,,
12549,0,0.54,0.95,0.51,0.42,,,,,,,,,4062,0,,,,,,,-12.23,,,0,0,0,0,0,0,0,0,0,0,-1,0,0,0,0
12569,0,0.54,0.94,0.51,0.42,,,-0.02,-0.08,-1.02,0,0,-1,4062,0,3.6,,13,22.01,25,,-14.83,,,,,,,,,,,,,,,,,
12589,0,0.54,0.94,0.51,0.42,,,,,,,,,4071,0,,,,,,,-14.83,,,,,,,,,,,,,,,,,
12609,0,0.54,0.95,0.51,0.42,,,0.02,-0.07,-1.08,0,0,0,4071,0,6.38,,0,22.01,25,,-14.83,,,,,,,,,,,,,,,,,
12629,1.52977E+12,0.54,0.94,0.51,0.42,,,,,,,,,4071,0,,,,,,,-14.83,,,,,,,,,,,,,,,,,
12649,1.52977E+12,0.54,0.94,0.51,0.42,,,-0.01,-0.06,-1,0,0,-1,4160,0,3.65,,0,22.01,25,,-14.83,,,40.847313,-96.767212,0,0,99.9,5,2,1.7,0,0,-1,0,0,0,0
12669,1.52977E+12,0.54,0.95,0.51,0.42,,,,,,,,,4160,0,,,,,,,-17.45,,,,,,,,,,,,,,,,,
12689,1.52977E+12,0.54,0.94,0.52,0.42,,,0.08,-0.07,-1.06,0,0,-1,4083,0,3.59,,0,22.01,25,,-17.45,,,,,,,,,,,,,,,,,
12709,1.52977E+12,0.55,0.95,0.51,0.42,,,,,,,,,4083,0,,,,,,,-17.45,,,,,,,,,,,,,,,,,
12729,1.52977E+12,0.54,0.95,0.51,0.43,,,0.01,-0.05,-1.08,0,0,0,4083,0,3.59,,0,22.01,25,,-17.45,,,,,,,,,,,,,,,,,
12749,1.52977E+12,0.54,0.95,0.51,0.42,,,,,,,,,4027,0,,,,,,,-17.45,,,40.847313,-96.767212,0,0,99.9,5,2,1.7,0,0,-1,0,0,0,0
12769,1.52977E+12,0.54,0.95,0.51,0.43,,,0.05,-0.06,-1,0,0,0,4027,0,6.24,,7,22.01,25,,-14,,,,,,,,,,,,,,,,,
12789,1.52977E+12,0.54,0.95,0.51,0.43,,,,,,,,,4020,0,,,,,,,-14,,,,,,,,,,,,,,,,,
12809,1.52977E+12,0.54,0.95,0.51,0.42,,,0.05,-0.03,-1.06,0,0,0,4020,0,3.56,,19,22.01,25,,-14,,,,,,,,,,,,,,,,,
12829,1.52977E+12,0.55,0.95,0.51,0.43,,,,,,,,,4020,0,,,,,,,-14,,,,,,,,,,,,,,,,,
12849,1.52977E+12,0.55,0.95,0.52,0.42,,,0.02,-0.05,-1.02,0,0,0,4001,0,3.52,,0,22.01,25,,-14,,,40.847263,-96.76722,0,0,163.4,5,2,0.2,0,0,-1,0,0,0,0
12869,1.52977E+12,0.55,0.95,0.51,0.42,,,,,,,,,4001,0,,,,,,,-12.75,,,,,,,,,,,,,,,,,
12889,1.52977E+12,0.55,0.96,0.52,0.42,,,0.07,-0.07,-1,0,0,0,4051,0,3.52,,0,22.01,25,,-12.75,,,,,,,,,,,,,,,,,
12909,1.52977E+12,0.55,0.96,0.51,0.43,,,,,,,,,4051,0,,,,,,,-12.75,,,,,,,,,,,,,,,,,
12929,1.52977E+12,0.55,0.95,0.52,0.43,,,0.01,-0.06,-1.04,0,0,0,4051,0,3.52,,17,22.01,25,,-12.75,,,,,,,,,,,,,,,,,
12949,1.52977E+12,0.55,0.95,0.52,0.43,,,,,,,,,4014,0,,,,,,,-12.75,,,40.847233,-96.767227,68.07,0.001,202.6,5,2,0.2,0,0,-1,0,0,0,0
12969,1.52977E+12,0.55,0.95,0.51,0.43,,,0.01,-0.09,-0.94,0,0,0,4014,0,3.5,,13,22.01,25,,-14.08,,,,,,,,,,,,,,,,,
12989,1.52977E+12,0.55,0.96,0.51,0.43,,,,,,,,,4046,0,,,,,,,-14.08,,,,,,,,,,,,,,,,,
13009,1.52977E+12,0.54,0.96,0.52,0.43,,,0.07,-0.09,-0.96,0,0,0,4046,0,3.49,,12,22.01,25,,-14.08,,,,,,,,,,,,,,,,,
13029,1.52977E+12,0.55,0.96,0.51,0.43,,,,,,,,,4046,0,,,,,,,-14.08,,,,,,,,,,,,,,,,,
13049,1.52977E+12,0.55,0.96,0.51,0.43,14.35,,0.01,-0.08,-0.99,0,0,0,4034,0,3.48,70,20,22.01,25,44,-14.08,44,22,40.847012,-96.767273,80.56,0.003,485.1,5,2,0.2,0,0,-1,0,0,0,0
13069,1.52977E+12,0.55,0.96,0.52,0.43,,,,,,,,,4034,0,,,,,,,-1.02,,,,,,,,,,,,,,,,,
13089,1.52977E+12,0.55,0.96,0.52,0.42,,,0.03,-0.1,-0.88,0,0,0,4028,0,3.45,,20,22.01,25,,-1.02,,,,,,,,,,,,,,,,,
13109,1.52977E+12,0.56,0.96,0.52,0.42,,,,,,,,,4028,0,,,,,,,-1.02,,,,,,,,,,,,,,,,,
13129,1.52977E+12,0.55,0.97,0.52,0.43,,,0.05,-0.06,-0.99,0,0,0,4028,0,3.45,,19,22.01,25,,-1.02,,,,,,,,,,,,,,,,,
13149,1.52977E+12,0.55,0.96,0.52,0.42,,,,,,,,,4000,0,,,,,,,-1.02,,,40.846874,-96.767296,70.96,0.005,657.1,5,2,0.2,0,0,-1,0,0,0,0
13169,1.52977E+12,0.55,0.96,0.52,0.43,,,0,-0.07,-0.99,0,0,0,4000,0,3.43,,16,22.01,25,,-8.93,,,,,,,,,,,,,,,,,
13189,1.52977E+12,0.56,0.97,0.52,0.43,,,,,,,,,4043,0,,,,,,,-8.93,,,,,,,,,,,,,,,,,
13209,1.52977E+12,0.55,0.97,0.52,0.43,,,0.06,-0.08,-0.99,0,1,-1,4043,0,3.44,,18,22.01,25,,-8.93,,,,,,,,,,,,,,,,,
13229,1.52977E+12,0.55,0.96,0.52,0.43,,,,,,,,,4043,0,,,,,,,-8.93,,,,,,,,,,,,,,,,,
13249,1.52977E+12,0.56,0.96,0.52,0.43,,,0.08,-0.06,-0.99,0,0,0,4053,0,3.42,,20,22.01,25,,-8.93,,,40.846783,-96.767311,59.52,0.007,767.8,5,2,0.2,0,0,-1,0,0,0,0
13269,1.52977E+12,0.55,0.96,0.52,0.42,,,,,,,,,4053,0,,,,,,,-2.4,,,,,,,,,,,,,,,,,
13289,1.52977E+12,0.56,0.97,0.52,0.43,,,0.04,-0.08,-0.93,0,1,0,4068,0,3.43,,20,22.01,25,,-2.4,,,,,,,,,,,,,,,,,
13309,1.52977E+12,0.55,0.97,0.52,0.43,,,,,,,,,4068,0,,,,,,,-2.4,,,,,,,,,,,,,,,,,
13329,1.52977E+12,0.56,0.97,0.52,0.43,,,0.09,-0.06,-0.97,0,0,0,4068,0,3.43,,20,22.01,25,,-2.4,,,,,,,,,,,,,,,,,
13349,1.52977E+12,0.55,0.97,0.52,0.43,,,,,,,,,4007,0,,,,,,,-2.4,,,40.846725,-96.767326,50.49,0.008,850,5,2,0.2,0,0,-1,0,0,0,0
13369,1.52977E+12,0.55,0.97,0.52,0.43,,,0.05,-0.04,-1.02,0,0,0,4007,0,3.38,,15,22.01,25,,0.8,,,,,,,,,,,,,,,,,
13389,1.52977E+12,0.55,0.97,0.52,0.43,,,,,,,,,3978,0,,,,,,,0.8,,,,,,,,,,,,,,,,,
13409,1.52977E+12,0.56,0.97,0.53,0.43,,,0.02,-0.06,-0.95,0,0,0,3978,0,3.36,,39,22.01,25,,0.8,,,,,,,,,,,,,,,,,
13429,1.52977E+12,0.56,0.97,0.53,0.43,,,,,,,,,3978,0,,,,,,,0.8,,,,,,,,,,,,,,,,,
13449,1.52977E+12,0.56,0.97,0.53,0.42,,,0.07,-0.06,-0.98,0,0,0,3968,0,3.35,,11,22.01,25,,0.8,,,40.846725,-96.767326,43.79,0.01,849.4,5,2,0.2,0,0,-1,0,0,0,0
13469,1.52977E+12,0.55,0.97,0.52,0.43,,,,,,,,,3968,0,,,,,,,-7.7,,,,,,,,,,,,,,,,,
13489,1.52977E+12,0.56,0.97,0.53,0.43,,,0.07,-0.03,-1.03,0,0,0,3950,0,3.34,,11,22.01,25,,-7.7,,,,,,,,,,,,,,,,,
13509,1.52977E+12,0.56,0.98,0.53,0.43,,,,,,,,,3950,0,,,,,,,-7.7,,,,,,,,,,,,,,,,,
13529,1.52977E+12,0.56,0.98,0.53,0.43,,,0.01,-0.06,-1.02,0,0,0,3950,0,3.34,,25,22.01,25,,-7.7,,,,,,,,,,,,,,,,,
13549,1.52977E+12,0.56,0.98,0.52,0.43,,,,,,,,,3964,0,,,,,,,-7.7,,,40.846684,-96.767334,38.44,0.011,899.9,5,2,0.2,0,0,-1,0,0,0,0
13569,1.52977E+12,0.56,0.97,0.53,0.43,,,0.04,-0.07,-0.95,0,1,0,3964,0,3.32,,14,22.01,25,,-9.55,,,,,,,,,,,,,,,,,
13589,1.52977E+12,0.56,0.98,0.52,0.43,,,,,,,,,3904,0,,,,,,,-9.55,,,,,,,,,,,,,,,,,
13609,1.52977E+12,0.56,0.98,0.53,0.43,,,0.07,-0.04,-1,0,1,0,3904,0,3.3,,16,22.01,25,,-9.55,,,,,,,,,,,,,,,,,
13629,1.52977E+12,0.56,0.98,0.52,0.43,,,,,,,,,3904,0,,,,,,,-9.55,,,,,,,,,,,,,,,,,
13649,1.52977E+12,0.56,0.98,0.53,0.43,,,0.08,-0.02,-1.02,0,0,0,3881,0,3.29,,24,22.01,25,,-9.55,,,40.846684,-96.767334,33.96,0.012,898.9,5,2,0.2,0,0,-1,0,0,0,0
13669,1.52977E+12,0.56,0.98,0.53,0.43,,,,,,,,,3881,0,,,,,,,-6.95,,,,,,,,,,,,,,,,,
13689,1.52977E+12,0.56,0.98,0.53,0.42,,,0.05,-0.02,-1.07,0,0,0,3850,0,3.28,,24,22.01,25,,-6.95,,,,,,,,,,,,,,,,,
13709,1.52977E+12,0.56,0.98,0.53,0.43,,,,,,,,,3850,0,,,,,,,-6.95,,,,,,,,,,,,,,,,,
13729,1.52977E+12,0.56,0.98,0.53,0.43,,,0.05,-0.05,-1.05,0,0,0,3850,0,3.28,,20,22.01,25,,-6.95,,,,,,,,,,,,,,,,,
13749,1.52977E+12,0.56,0.98,0.53,0.42,,,,,,,,,3869,0,,,,,,,-6.95,,,40.846684,-96.767334,30.57,0.013,898,5,2,0.2,0,0,-1,0,0,0,0
13769,1.52977E+12,0.56,0.98,0.53,0.43,,,0.05,-0.07,-0.99,0,0,0,3869,0,3.27,,12,22.01,25,,-11.43,,,,,,,,,,,,,,,,,
13789,1.52977E+12,0.56,0.99,0.52,0.43,,,,,,,,,3897,0,,,,,,,-11.43,,,,,,,,,,,,,,,,,
13809,1.52977E+12,0.56,0.98,0.53,0.43,,,0.08,-0.08,-0.99,0,0,0,3897,0,5.53,,15,22.01,25,,-11.43,,,,,,,,,,,,,,,,,
13829,1.52977E+12,0.56,0.98,0.53,0.43,,,,,,,,,3897,0,,,,,,,-11.43,,,,,,,,,,,,,,,,,
13849,1.52977E+12,0.56,0.98,0.52,0.43,,,0.06,-0.05,-1.06,0,0,0,3984,0,5.62,,0,22.01,25,,-11.43,,,40.846684,-96.767334,27.51,0.014,897.3,5,2,0.2,0,0,-1,0,0,0,0
13869,1.52977E+12,0.57,0.98,0.53,0.43,,,,,,,,,3984,0,,,,,,,-13.13,,,,,,,,,,,,,,,,,
13889,1.52977E+12,0.57,0.98,0.53,0.43,,,0.01,-0.09,-1.05,0,0,-1,3966,0,3.22,,0,22.01,25,,-13.13,,,,,,,,,,,,,,,,,
13909,1.52977E+12,0.56,0.99,0.53,0.43,,,,,,,,,3966,0,,,,,,,-13.13,,,,,,,,,,,,,,,,,
13929,1.52977E+12,0.56,0.99,0.54,0.44,,,0.02,-0.11,-0.98,0,0,-1,3966,0,3.22,,0,22.01,25,,-13.13,,,,,,,,,,,,,,,,,
13949,1.52977E+12,0.56,0.99,0.53,0.43,,,,,,,,,4038,0,,,,,,,-13.13,,,40.846684,-96.767334,24.85,0.014,896.8,5,2,0.2,0,0,-1,0,0,0,0
13969,1.52977E+12,0.56,0.98,0.53,0.44,,,0.02,-0.09,-1,0,0,-1,4038,0,3.22,,13,22.01,25,,-9.7,,,,,,,,,,,,,,,,,
13989,1.52977E+12,0.57,0.99,0.54,0.44,,,,,,,,,3945,0,,,,,,,-9.7,,,,,,,,,,,,,,,,,
14009,1.52977E+12,0.57,0.99,0.53,0.43,,,-0.02,-0.09,-1.08,0,0,0,3945,0,5.49,,7,22.01,25,,-9.7,,,,,,,,,,,,,,,,,
14029,1.52977E+12,0.57,0.99,0.53,0.43,,,,,,,,,3945,0,,,,,,,-9.7,,,,,,,,,,,,,,,,,
14049,1.52977E+12,0.57,0.99,0.53,0.43,14.29,,-0.01,-0.12,-0.95,0,0,-1,3983,0,5.52,70,0,22.01,25,43,-9.7,45,22,40.846664,-96.767342,22.51,0.015,923.6,5,2,0.2,0,0,-1,0,0,0,0
14069,1.52977E+12,0.57,0.99,0.53,0.43,,,,,,,,,3983,0,,,,,,,-17.4,,,,,,,,,,,,,,,,,
14089,1.52977E+12,0.56,0.99,0.54,0.44,,,-0.02,-0.1,-1.11,0,0,0,4071,0,5.61,,0,22.01,25,,-17.4,,,,,,,,,,,,,,,,,
14109,1.52977E+12,0.57,0.99,0.53,0.43,,,,,,,,,4071,0,,,,,,,-17.4,,,,,,,,,,,,,,,,,
14129,1.52977E+12,0.57,0.99,0.54,0.43,,,0.01,-0.1,-0.98,0,0,-1,4071,0,5.61,,0,22.01,25,,-17.4,,,,,,,,,,,,,,,,,
14149,1.52977E+12,0.57,0.99,0.53,0.43,,,,,,,,,4172,0,,,,,,,-17.4,,,40.846642,-96.767342,20.61,0.016,947.2,5,2,0.2,0,0,-1,0,0,0,0
14169,1.52977E+12,0.57,0.99,0.53,0.43,,,0.01,-0.09,-1.07,0,0,0,4172,0,5.67,,7,22.01,25,,-17.68,,,,,,,,,,,,,,,,,
14189,1.52977E+12,0.57,0.99,0.53,0.44,,,,,,,,,4079,0,,,,,,,-17.68,,,,,,,,,,,,,,,,,
14209,1.52977E+12,0.56,1,0.54,0.44,,,0,-0.09,-1.05,0,0,0,4079,0,3.2,,0,22.01,25,,-17.68,,,,,,,,,,,,,,,,,
14229,1.52977E+12,0.57,0.99,0.53,0.44,,,,,,,,,4079,0,,,,,,,-17.68,,,,,,,,,,,,,,,,,
14249,1.52977E+12,0.57,0.99,0.53,0.44,,,0.04,-0.09,-1,0,0,0,4124,0,3.2,,11,22.01,25,,-17.68,,,40.846626,-96.767349,18.82,0.016,966.1,5,2,0.2,0,0,-1,0,0,0,0
14269,1.52977E+12,0.57,0.99,0.54,0.44,,,,,,,,,4124,0,,,,,,,-16.03,,,,,,,,,,,,,,,,,
14289,1.52977E+12,0.57,0.99,0.54,0.43,,,-0.03,-0.08,-1.07,0,0,0,4020,0,5.46,,11,22.01,25,,-16.03,,,,,,,,,,,,,,,,,
14309,1.52977E+12,0.57,0.99,0.54,0.44,,,,,,,,,4020,0,,,,,,,-16.03,,,,,,,,,,,,,,,,,
14329,1.52977E+12,0.57,1,0.53,0.43,,,0.01,-0.1,-0.97,0,0,0,4020,0,5.46,,8,22.01,25,,-16.03,,,,,,,,,,,,,,,,,
14349,1.52977E+12,0.57,1,0.54,0.44,,,,,,,,,4029,0,,,,,,,-16.03,,,40.846611,-96.767349,16.45,0.017,986.2,5,2,0.2,0,0,-1,0,0,0,0
14369,1.52977E+12,0.57,1,0.53,0.44,,,0,-0.07,-1.1,0,0,0,4029,0,5.43,,15,22.01,25,,-13.68,,,,,,,,,,,,,,,,,
14389,1.52977E+12,0.57,1,0.54,0.44,,,,,,,,,4052,0,,,,,,,-13.68,,,,,,,,,,,,,,,,,
14409,1.52977E+12,0.57,1,0.54,0.44,,,0.02,-0.08,-0.94,0,0,-1,4052,0,3.13,,0,22.01,25,,-13.68,,,,,,,,,,,,,,,,,
14429,1.52977E+12,0.57,1,0.54,0.44,,,,,,,,,4052,0,,,,,,,-13.68,,,,,,,,,,,,,,,,,
14449,1.52977E+12,0.57,1,0.54,0.44,,,0.04,-0.06,-1.05,0,0,0,4051,0,3.12,,0,22.01,25,,-13.68,,,40.8466,-96.767357,14.59,0.017,1002.5,5,2,0.2,0,0,-1,0,0,0,0
14469,1.52977E+12,0.57,1,0.53,0.44,,,,,,,,,4051,0,,,,,,,-16.23,,,,,,,,,,,,,,,,,
14489,1.52977E+12,0.57,1,0.54,0.44,,,0.03,-0.06,-0.97,0,0,-1,4115,0,3.13,,0,22.01,25,,-16.23,,,,,,,,,,,,,,,,,
14509,1.52977E+12,0.57,1,0.54,0.44,,,,,,,,,4115,0,,,,,,,-16.23,,,,,,,,,,,,,,,,,
14529,1.52977E+12,0.57,1,0.54,0.44,,,0.08,-0.04,-1.01,0,0,0,4115,0,3.13,,0,22.01,25,,-16.23,,,,,,,,,,,,,,,,,
14549,1.52977E+12,0.57,1.01,0.54,0.43,,,,,,,,,4059,0,,,,,,,-16.23,,,40.846584,-96.767357,12.86,0.017,1016.2,5,2,0.2,0,0,-1,0,0,0,0
14569,1.52977E+12,0.57,1,0.54,0.44,,,0.02,-0.04,-1.02,0,0,0,4059,0,5.36,,0,22.01,25,,-17.05,,,,,,,,,,,,,,,,,
14589,1.52977E+12,0.57,1,0.54,0.44,,,,,,,,,4126,0,,,,,,,-17.05,,,,,,,,,,,,,,,,,
14609,1.52977E+12,0.57,1.01,0.54,0.44,,,0.08,-0.06,-0.95,0,0,0,4126,0,3.11,,9,22.01,25,,-17.05,,,,,,,,,,,,,,,,,
14629,1.52977E+12,0.57,1,0.54,0.44,,,,,,,,,4126,0,,,,,,,-17.05,,,,,,,,,,,,,,,,,
14649,1.52977E+12,0.57,1,0.54,0.44,,,0.05,-0.05,-1.05,0,0,0,4037,0,5.28,,15,22.01,25,,-17.05,,,40.846577,-96.767364,11.39,0.018,1028.1,5,2,0.2,0,0,-1,0,0,0,0
14669,1.52977E+12,0.57,1,0.54,0.44,,,,,,,,,4037,0,,,,,,,-14.98,,,,,,,,,,,,,,,,,
14689,1.52977E+12,0.57,1.01,0.54,0.44,,,0.04,-0.08,-0.96,0,0,0,4012,0,3.05,,15,22.01,25,,-14.98,,,,,,,,,,,,,,,,,
14709,1.52977E+12,0.58,1.01,0.54,0.44,,,,,,,,,4012,0,,,,,,,-14.98,,,,,,,,,,,,,,,,,
14729,1.52977E+12,0.58,1.01,0.55,0.44,,,0.03,-0.06,-1.06,0,0,0,4012,0,3.05,,23,22.01,25,,-14.98,,,,,,,,,,,,,,,,,
14749,1.52977E+12,0.57,1.01,0.54,0.44,,,,,,,,,3970,0,,,,,,,-14.98,,,40.846569,-96.767364,10.59,0.018,1038.2,5,2,0.2,0,0,-1,0,0,0,0
14769,1.52977E+12,0.57,1.01,0.54,0.45,,,-0.03,-0.08,-1.03,0,0,0,3970,0,3.01,,8,22.01,25,,-3.43,,,,,,,,,,,,,,,,,
14789,1.52977E+12,0.58,1.01,0.54,0.44,,,,,,,,,4067,0,,,,,,,-3.43,,,,,,,,,,,,,,,,,
14809,1.52977E+12,0.58,1.02,0.55,0.43,,,0.01,-0.12,-1.01,0,0,-1,4067,0,3.03,,13,22.01,25,,-3.43,,,,,,,,,,,,,,,,,
14829,1.52977E+12,0.58,1.01,0.54,0.44,,,,,,,,,4067,0,,,,,,,-3.43,,,,,,,,,,,,,,,,,
14849,1.52977E+12,0.58,1,0.54,0.44,,,0.01,-0.07,-1.11,0,0,0,4062,0,3.01,,37,22.01,25,,-3.43,,,40.846565,-96.767364,9.21,0.018,1048,5,2,0.2,0,0,-1,0,0,0,0
14869,1.52977E+12,0.58,1.01,0.54,0.44,,,,,,,,,4062,0,,,,,,,-4.1,,,,,,,,,,,,,,,,,
14889,1.52977E+12,0.58,1.01,0.55,0.44,,,-0.02,-0.1,-1.06,0,0,0,4002,0,2.97,,37,22.01,25,,-4.1,,,,,,,,,,,,,,,,,
14909,1.52977E+12,0.58,1.02,0.55,0.43,,,,,,,,,4002,0,,,,,,,-4.1,,,,,,,,,,,,,,,,,
14929,1.52977E+12,0.58,1.02,0.54,0.44,,,0.01,-0.12,-1.02,0,0,-1,4002,0,2.97,,38,22.01,25,,-4.1,,,,,,,,,,,,,,,,,
14949,1.52977E+12,0.58,1.01,0.55,0.44,,,,,,,,,3944,0,,,,,,,-4.1,,,40.846558,-96.767364,8.59,0.019,1055.9,5,2,0.2,0,0,-1,0,0,0,0
14969,1.52977E+12,0.58,1.01,0.55,0.44,,,0.04,0.04,-1.14,0,0,0,3944,0,3.04,,81,22.01,25,,53.6,,,,,,,,,,,,,,,,,
14989,1.52977E+12,0.58,1.02,0.55,0.45,,,,,,,,,4013,0,,,,,,,53.6,,,,,,,,,,,,,,,,,
15009,1.52977E+12,0.58,1.02,0.55,0.44,,,0.04,-0.15,-1.05,0,-1,-1,4013,0,4.45,,75,22.01,25,,53.6,,,,,,,,,,,,,,,,,
15029,1.52977E+12,0.58,1.02,0.55,0.43,,,,,,,,,4013,0,,,,,,,53.6,,,,,,,,,,,,,,,,,
15049,1.52977E+12,0.58,1.02,0.55,0.44,14.18,,0.09,-0.1,-1.05,0,-2,0,4021,0,3.23,70,79,22.01,25,42,53.6,45,22,40.846558,-96.767364,7.48,0.019,1064.2,5,2,0.2,0,0,-1,0,0,0,0
15069,1.52977E+12,0.58,1.01,0.55,0.44,,,,,,,,,4021,0,,,,,,,52.73,,,,,,,,,,,,,,,,,
15089,1.52977E+12,0.58,1.01,0.55,0.44,,,0.07,-0.05,-1.09,0,0,0,4042,0,3.24,,79,22.01,25,,52.73,,,,,,,,,,,,,,,,,
15109,1.52977E+12,0.58,1.02,0.55,0.44,,,,,,,,,4042,0,,,,,,,52.73,,,,,,,,,,,,,,,,,
15129,1.52977E+12,0.58,1.02,0.55,0.44,,,0.06,-0.05,-1.01,0,0,0,4042,0,3.24,,61,22.01,25,,52.73,,,,,,,,,,,,,,,,,
15149,1.52977E+12,0.59,1.01,0.55,0.44,,,,,,,,,4036,0,,,,,,,52.73,,,40.846558,-96.767364,7.06,0.019,1070.6,5,2,0.2,0,0,-1,0,0,0,0
15169,1.52977E+12,0.58,1.02,0.55,0.45,,,0.08,-0.08,-1.02,0,-1,0,4036,0,3.2,,79,22.01,25,,15.72,,,,,,,,,,,,,,,,,
15189,1.52977E+12,0.58,1.02,0.55,0.45,,,,,,,,,4032,0,,,,,,,15.72,,,,,,,,,,,,,,,,,
15209,1.52977E+12,0.58,1.02,0.55,0.44,,,0.02,-0.12,-1.06,0,-1,1,4032,0,3.78,,62,22.01,25,,15.72,,,,,,,,,,,,,,,,,
15229,1.52977E+12,0.58,1.02,0.55,0.45,,,,,,,,,4032,0,,,,,,,15.72,,,,,,,,,,,,,,,,,
15249,1.52977E+12,0.58,1.02,0.55,0.44,,,0.03,-0.1,-0.99,0,0,0,4023,9.7,4.2,,60,22.01,25,,15.72,,,40.846558,-96.767364,6.42,0.019,1075.7,5,2,0.2,0,0,-1,0,0,0,0
15269,1.52977E+12,0.59,1.02,0.55,0.44,,,,,,,,,4023,9.7,,,,,,,43.5,,,,,,,,,,,,,,,,,
15289,1.52977E+12,0.59,1.02,0.55,0.44,,,0.05,-0.03,-1.07,0,0,1,4076,6.1,4.08,,60,22.01,25,,43.5,,,,,,,,,,,,,,,,,
15309,1.52977E+12,0.59,1.03,0.55,0.44,,,,,,,,,4076,6.1,,,,,,,43.5,,,,,,,,,,,,,,,,,
15329,1.52977E+12,0.58,1.02,0.55,0.44,,,0.02,-0.06,-1.08,0,0,0,4076,6.1,4.08,,77,22.01,25,,43.5,,,,,,,,,,,,,,,,,
15349,1.52977E+12,0.59,1.02,0.55,0.44,,,,,,,,,4081,0,,,,,,,43.5,,,40.846558,-96.767364,5.84,0.019,1079.3,5,2,0.2,0,0,-1,0,0,0,0
15369,1.52977E+12,0.59,1.03,0.55,0.45,,,0.06,-0.08,-1.01,0,0,0,4081,0,3.35,,74,22.01,25,,53.27,,,,,,,,,,,,,,,,,
15389,1.52977E+12,0.59,1.03,0.55,0.44,,,,,,,,,4012,2.9,,,,,,,53.27,,,,,,,,,,,,,,,,,
15409,1.52977E+12,0.58,1.03,0.56,0.44,,,0.01,-0.09,-1.01,0,0,0,4012,2.9,3.01,,73,22.01,25,,53.27,,,,,,,,,,,,,,,,,
15429,1.52977E+12,0.59,1.03,0.55,0.44,,,,,,,,,4012,2.9,,,,,,,53.27,,,,,,,,,,,,,,,,,
15449,1.52977E+12,0.59,1.03,0.55,0.44,,,0.01,-0.11,-0.96,0,0,0,3964,0,3.06,,72,22.01,25,,53.27,,,40.846558,-96.767364,5.31,0.02,1082.5,5,2,0.2,0,0,-1,0,0,0,0
15469,1.52977E+12,0.59,1.02,0.55,0.44,,,,,,,,,3964,0,,,,,,,51.9,,,,,,,,,,,,,,,,,
15489,1.52977E+12,0.59,1.03,0.56,0.44,,,0.04,-0.07,-0.92,0,1,0,3924,2.4,3.64,,72,22.01,25,,51.9,,,,,,,,,,,,,,,,,
15509,1.52977E+12,0.59,1.03,0.55,0.45,,,,,,,,,3924,2.4,,,,,,,51.9,,,,,,,,,,,,,,,,,
15529,1.52977E+12,0.59,1.03,0.56,0.44,,,0.08,-0.04,-1,0,1,0,3924,2.4,3.64,,72,22.01,25,,51.9,,,,,,,,,,,,,,,,,
15549,1.52977E+12,0.59,1.03,0.56,0.45,,,,,,,,,3830,1.7,,,,,,,51.9,,,40.846558,-96.767364,4.84,0.02,1085.9,5,2,0.2,0,0,-1,0,0,0,0
15569,1.52977E+12,0.59,1.03,0.55,0.45,,,0.08,-0.03,-0.97,0,0,0,3830,1.7,3.17,,63,22.01,25,,49.77,,,,,,,,,,,,,,,,,
15589,1.52977E+12,0.59,1.03,0.55,0.45,,,,,,,,,3781,0,,,,,,,49.77,,,,,,,,,,,,,,,,,
15609,1.52977E+12,0.59,1.04,0.56,0.44,,,0.08,-0.05,-0.95,0,0,0,3781,0,3.61,,71,22.01,25,,49.77,,,,,,,,,,,,,,,,,
15629,1.52977E+12,0.59,1.03,0.55,0.44,,,,,,,,,3781,0,,,,,,,49.77,,,,,,,,,,,,,,,,,
15649,1.52977E+12,0.59,1.02,0.56,0.45,,,0.06,-0.06,-0.95,0,0,0,3748,3.2,3.49,,64,22.01,25,,49.77,,,40.846558,-96.767364,4.42,0.02,1089.1,5,2,0.1,0,0,-1,0,0,0,0
15669,1.52977E+12,0.59,1.03,0.56,0.45,,,,,,,,,3748,3.2,,,,,,,64.6,,,,,,,,,,,,,,,,,
15689,1.52977E+12,0.59,1.03,0.56,0.45,,,0.06,-0.05,-0.95,0,0,-1,3748,7.2,3.64,,64,22.01,25,,64.6,,,,,,,,,,,,,,,,,
15709,1.52977E+12,0.59,1.03,0.56,0.45,,,,,,,,,3748,7.2,,,,,,,64.6,,,,,,,,,,,,,,,,,
15729,1.52977E+12,0.59,1.03,0.55,0.45,,,0.04,-0.06,-1.01,0,0,-1,3748,7.2,3.64,,73,22.01,25,,64.6,,,,,,,,,,,,,,,,,
15749,1.52977E+12,0.59,1.04,0.56,0.44,,,,,,,,,3804,10.3,,,,,,,64.6,,,40.846558,-96.767364,3.97,0.02,1092.4,5,2,0.1,0,0,-1,0,0,0,0
15769,1.52977E+12,0.59,1.04,0.56,0.45,,,0.04,-0.08,-1,0,0,-1,3804,10.3,3.81,,76,22.01,25,,51.58,,,,,,,,,,,,,,,,,
15789,1.52977E+12,0.59,1.04,0.56,0.45,,,,,,,,,3827,10.6,,,,,,,51.58,,,,,,,,,,,,,,,,,
15809,1.52977E+12,0.59,1.04,0.56,0.45,,,0.02,-0.09,-1.03,0,0,-1,3827,10.6,3.75,,67,22.01,25,,51.58,,,,,,,,,,,,,,,,,
15829,1.52977E+12,0.6,1.04,0.55,0.45,,,,,,,,,3827,10.6,,,,,,,51.58,,,,,,,,,,,,,,,,,
15849,1.52977E+12,0.59,1.03,0.56,0.45,,,0,-0.09,-1.03,0,0,-1,3829,0,3.92,,78,22.01,25,,51.58,,,40.846558,-96.767364,3.8,0.02,1096,5,2,0.1,0,0,-1,0,0,0,0
15869,1.52977E+12,0.6,1.03,0.56,0.45,,,,,,,,,3829,0,,,,,,,53.63,,,,,,,,,,,,,,,,,
15889,1.52977E+12,0.59,1.04,0.56,0.45,,,0.01,-0.07,-1,0,1,-1,3953,10.6,3.82,,78,22.01,25,,53.63,,,,,,,,,,,,,,,,,
15909,1.52977E+12,0.59,1.04,0.56,0.45,,,,,,,,,3953,10.6,,,,,,,53.63,,,,,,,,,,,,,,,,,
15929,1.52977E+12,0.59,1.04,0.56,0.45,,,0.02,-0.05,-1.06,0,0,-1,3953,10.6,3.82,,78,22.01,25,,53.63,,,,,,,,,,,,,,,,,
15949,1.52977E+12,0.6,1.04,0.56,0.45,,,,,,,,,4055,11,,,,,,,53.63,,,40.846558,-96.767364,3.44,0.02,1100.1,5,2,0.1,0,0,-1,0,0,0,0
15969,1.52977E+12,0.59,1.04,0.56,0.45,,,-0.03,-0.07,-1.02,0,1,-1,4055,11,3.69,,66,22.01,25,,35.95,,,,,,,,,,,,,,,,,
15989,1.52977E+12,0.59,1.04,0.56,0.45,,,,,,,,,4120,0,,,,,,,35.95,,,,,,,,,,,,,,,,,
16009,1.52977E+12,0.6,1.04,0.56,0.45,,,0,-0.03,-1.06,0,1,-1,4120,0,1.4,,79,22.01,25,,35.95,,,,,,,,,,,,,,,,,
16029,1.52977E+12,0.6,1.05,0.56,0.45,,,,,,,,,4120,0,,,,,,,35.95,,,,,,,,,,,,,,,,,
16049,1.52977E+12,0.6,1.04,0.55,0.45,14.31,,-0.04,-0.05,-1.06,0,1,-1,4090,11.2,3.87,70,66,22.01,25,42,35.95,46,22,40.846558,-96.767364,0,0.02,1103,5,2,0.1,0,0,-1,0,0,0,0
16069,1.52977E+12,0.6,1.05,0.56,0.45,,,,,,,,,4090,11.2,,,,,,,55.17,,,,,,,,,,,,,,,,,
16089,1.52977E+12,0.6,1.04,0.56,0.45,,,0.03,-0.04,-1.06,0,0,-1,4108,0,3.09,,66,22.01,25,,55.17,,,,,,,,,,,,,,,,,
16109,1.52977E+12,0.6,1.04,0.56,0.45,,,,,,,,,4108,0,,,,,,,55.17,,,,,,,,,,,,,,,,,
16129,1.52977E+12,0.6,1.04,0.56,0.45,,,-0.01,-0.06,-1.06,0,0,-1,4108,0,3.09,,80,22.01,25,,55.17,,,,,,,,,,,,,,,,,
16149,1.52977E+12,0.59,1.04,0.56,0.45,,,,,,,,,4186,12.9,,,,,,,55.17,,,40.846558,-96.767364,0,0.02,1104.9,5,2,0.1,0,0,-1,0,0,0,0
16169,1.52977E+12,0.6,1.04,0.57,0.45,,,0.02,-0.07,-1.12,0,0,0,4186,12.9,3.97,,80,22.01,25,,54.23,,,,,,,,,,,,,,,,,
16189,1.52977E+12,0.6,1.05,0.57,0.45,,,,,,,,,4254,14.2,,,,,,,54.23,,,,,,,,,,,,,,,,,
16209,1.52977E+12,0.6,1.05,0.56,0.45,,,0.04,-0.05,-0.97,0,1,-1,4254,14.2,3.83,,80,22.01,25,,54.23,,,,,,,,,,,,,,,,,
16229,1.52977E+12,0.6,1.05,0.56,0.45,,,,,,,,,4254,14.2,,,,,,,54.23,,,,,,,,,,,,,,,,,
16249,1.52977E+12,0.6,1.04,0.56,0.45,,,-0.05,-0.09,-1.04,0,0,-1,4346,0,3.72,,63,22.01,25,,54.23,,,40.846558,-96.767364,0,0.02,1106,5,2,0.1,0,0,-1,0,0,0,0
16269,1.52977E+12,0.6,1.05,0.57,0.44,,,,,,,,,4346,0,,,,,,,58.02,,,,,,,,,,,,,,,,,
16289,1.52977E+12,0.6,1.05,0.57,0.45,,,-0.04,-0.1,-1.19,0,0,0,4400,0,2.93,,63,22.01,25,,58.02,,,,,,,,,,,,,,,,,
16309,1.52977E+12,0.6,1.05,0.56,0.45,,,,,,,,,4400,0,,,,,,,58.02,,,,,,,,,,,,,,,,,
16329,1.52977E+12,0.6,1.05,0.56,0.45,,,-0.08,-0.13,-1.28,0,0,0,4400,0,2.93,,54,22.01,25,,58.02,,,,,,,,,,,,,,,,,
16349,1.52977E+12,0.6,1.05,0.56,0.45,,,,,,,,,4543,0,,,,,,,58.02,,,40.846558,-96.767364,0,0.02,1106.6,5,2,0.1,0,0,-1,0,0,0,0
16369,1.52977E+12,0.6,1.05,0.57,0.46,,,-0.06,-0.14,-1.4,0,0,0,4543,0,2.86,,68,22.01,25,,44.35,,,,,,,,,,,,,,,,,
16389,1.52977E+12,0.6,1.05,0.57,0.45,,,,,,,,,4627,0,,,,,,,44.35,,,,,,,,,,,,,,,,,
16409,1.52977E+12,0.6,1.05,0.57,0.44,,,-0.16,-0.19,-1.42,0,0,0,4627,0,2.84,,67,22.01,25,,44.35,,,,,,,,,,,,,,,,,
16429,1.52977E+12,0.6,1.05,0.56,0.45,,,,,,,,,4627,0,,,,,,,44.35,,,,,,,,,,,,,,,,,
16449,1.52977E+12,0.6,1.05,0.56,0.45,,,-0.15,-0.15,-1.26,0,0,0,4717,0,2.85,,72,22.01,25,,44.35,,,40.846558,-96.767364,0,0.02,1107,5,2,0.1,0,0,-1,0,0,0,0
16469,1.52977E+12,0.59,1.05,0.57,0.45,,,,,,,,,4717,0,,,,,,,35.45,,,,,,,,,,,,,,,,,
16489,1.52977E+12,0.6,1.05,0.57,0.46,,,-0.04,-0.08,-1.18,0,0,0,4767,0,2.73,,72,22.01,25,,35.45,,,,,,,,,,,,,,,,,
16509,1.52977E+12,0.6,1.05,0.57,0.45,,,,,,,,,4767,0,,,,,,,35.45,,,,,,,,,,,,,,,,,
16529,1.52977E+12,0.61,1.05,0.57,0.45,,,-0.08,-0.14,-1.16,0,0,0,4767,0,2.73,,82,22.01,25,,35.45,,,,,,,,,,,,,,,,,
16549,1.52977E+12,0.6,1.05,0.57,0.45,,,,,,,,,4911,0,,,,,,,35.45,,,40.846558,-96.767364,0,0.02,1106.9,5,2,0.1,0,0,-1,0,0,0,0
16569,1.52977E+12,0.6,1.06,0.57,0.45,,,-0.03,-0.07,-1.14,0,0,0,4911,0,3.04,,64,22.01,25,,33.33,,,,,,,,,,,,,,,,,
16589,1.52977E+12,0.6,1.05,0.57,0.46,,,,,,,,,5061,0,,,,,,,33.33,,,,,,,,,,,,,,,,,
16609,1.52977E+12,0.6,1.06,0.57,0.45,,,-0.04,-0.07,-1.07,0,0,0,5061,0,3.12,,62,22.01,25,,33.33,,,,,,,,,,,,,,,,,
16629,1.52977E+12,0.6,1.05,0.57,0.46,,,,,,,,,5061,0,,,,,,,33.33,,,,,,,,,,,,,,,,,
16649,1.52977E+12,0.61,1.05,0.57,0.45,,,-0.05,-0.07,-1.11,0,0,0,5297,0,2.99,,60,22.01,25,,33.33,,,40.846558,-96.767364,0,0.02,1106.7,5,2,0.1,0,0,-1,0,0,0,0
16669,1.52977E+12,0.6,1.05,0.57,0.45,,,,,,,,,5297,0,,,,,,,38.72,,,,,,,,,,,,,,,,,
16689,1.52977E+12,0.6,1.05,0.57,0.46,,,-0.03,-0.08,-0.95,0,0,0,5570,0,2.99,,60,22.01,25,,38.72,,,,,,,,,,,,,,,,,
16709,1.52977E+12,0.61,1.06,0.57,0.46,,,,,,,,,5570,0,,,,,,,38.72,,,,,,,,,,,,,,,,,
16729,1.52977E+12,0.6,1.06,0.57,0.46,,,-0.04,-0.09,-1.1,0,0,0,5570,0,2.99,,48,22.01,25,,38.72,,,,,,,,,,,,,,,,,
16749,1.52977E+12,0.6,1.06,0.57,0.45,,,,,,,,,5742,0,,,,,,,38.72,,,40.846558,-96.767364,0,0.02,1106.7,5,2,0.1,0,0,-1,0,0,0,0
16769,1.52977E+12,0.61,1.05,0.57,0.46,,,-0.02,-0.03,-1.02,0,0,0,5742,0,2.96,,55,22.01,25,,37.33,,,,,,,,,,,,,,,,,
16789,1.52977E+12,0.61,1.06,0.57,0.46,,,,,,,,,5742,0,,,,,,,37.33,,,,,,,,,,,,,,,,,
16809,1.52977E+12,0.61,1.06,0.57,0.45,,,0.05,-0.01,-0.92,0,1,0,5848,0,3.55,,61,22.01,25,,37.33,,,,,,,,,,,,,,,,,
16829,1.52977E+12,0.61,1.06,0.57,0.46,,,,,,,,,5848,0,,,,,,,37.33,,,,,,,,,,,,,,,,,
16849,1.52977E+12,0.61,1.06,0.57,0.46,,,0.06,-0.02,-0.82,0,0,0,5927,2.5,3.88,,66,22.01,25,,37.33,,,40.846558,-96.767364,0,0.02,1106.7,5,2,0.1,0,0,-1,0,0,0,0
16869,1.52977E+12,0.61,1.06,0.58,0.46,,,,,,,,,5927,2.5,,,,,,,47.73,,,,,,,,,,,,,,,,,
16889,1.52977E+12,0.61,1.06,0.57,0.46,,,0.06,-0.04,-0.81,0,0,-1,5935,0,1.4,,66,22.01,25,,47.73,,,,,,,,,,,,,,,,,
16909,1.52977E+12,0.61,1.06,0.57,0.46,,,,,,,,,5935,0,,,,,,,47.73,,,,,,,,,,,,,,,,,
16929,1.52977E+12,0.6,1.06,0.57,0.46,,,0.08,-0.05,-0.95,0,0,0,5935,0,1.4,,74,22.01,25,,47.73,,,,,,,,,,,,,,,,,
16949,1.52977E+12,0.61,1.06,0.57,0.46,,,,,,,,,5803,6.4,,,,,,,47.73,,,40.846558,-96.767364,0,0.02,1106.7,5,2,0.1,0,0,-1,0,0,0,0
16969,1.52977E+12,0.61,1.06,0.57,0.46,,,0.03,-0.09,-0.94,0,0,0,5803,6.4,3.44,,64,22.01,25,,48.6,,,,,,,,,,,,,,,,,
16989,1.52977E+12,0.61,1.06,0.58,0.46,,,,,,,,,5497,0,,,,,,,48.6,,,,,,,,,,,,,,,,,
17009,1.52977E+12,0.61,1.06,0.57,0.46,,,0.1,-0.01,-1,0,0,0,5497,0,3.21,,75,22.01,25,,48.6,,,,,,,,,,,,,,,,,
17029,1.52977E+12,0.61,1.06,0.57,0.46,,,,,,,,,5497,0,,,,,,,48.6,,,,,,,,,,,,,,,,,
17049,1.52977E+12,0.6,1.06,0.57,0.46,14.42,,0.05,0.03,-0.93,0,0,0,5491,0,3.22,70,76,22.01,25,41,48.6,46,22,40.846558,-96.767364,0,0.02,1106.7,5,2,0.1,0,0,-1,0,0,0,0
17069,1.52977E+12,0.61,1.06,0.57,0.45,,,,,,,,,5491,0,,,,,,,56.45,,,,,,,,,,,,,,,,,
17089,1.52977E+12,0.61,1.07,0.58,0.46,,,0.05,0.05,-1.04,0,0,0,5327,20.7,3.68,,76,22.01,25,,56.45,,,,,,,,,,,,,,,,,
17109,1.52977E+12,0.61,1.06,0.57,0.46,,,,,,,,,5327,20.7,,,,,,,56.45,,,,,,,,,,,,,,,,,
17129,1.52977E+12,0.61,1.07,0.57,0.45,,,0.02,0.1,-1,0,0,1,5327,20.7,3.68,,77,22.01,25,,56.45,,,,,,,,,,,,,,,,,
17149,1.52977E+12,0.61,1.07,0.58,0.46,,,,,,,,,5155,21.1,,,,,,,56.45,,,40.846554,-96.767364,0,0.02,1112.3,5,2,0.1,0,0,-1,0,0,0,0
17169,1.52977E+12,0.61,1.07,0.57,0.46,,,0.04,0.15,-1.06,0,0,2,5155,21.1,3.63,,78,22.01,25,,55.52,,,,,,,,,,,,,,,,,
17189,1.52977E+12,0.61,1.07,0.57,0.46,,,,,,,,,4955,0,,,,,,,55.52,,,,,,,,,,,,,,,,,
17209,1.52977E+12,0.61,1.07,0.58,0.46,,,0.07,0.17,-0.99,0,0,1,4955,0,3.56,,80,22.01,25,,55.52,,,,,,,,,,,,,,,,,
17229,1.52977E+12,0.61,1.07,0.58,0.46,,,,,,,,,4955,0,,,,,,,55.52,,,,,,,,,,,,,,,,,
17249,1.52977E+12,0.61,1.07,0.58,0.46,,,0.08,0.22,-1.09,0,0,1,4599,20.7,3.98,,83,22.01,25,,55.52,,,40.846554,-96.767364,0,0.02,1112.3,5,2,0.1,0,0,-1,0,0,0,0
17269,1.52977E+12,0.61,1.07,0.58,0.46,,,,,,,,,4599,20.7,,,,,,,53.48,,,,,,,,,,,,,,,,,
17289,1.52977E+12,0.61,1.07,0.58,0.46,,,0.12,0.29,-1.09,0,0,1,4339,19.7,3.98,,83,22.01,25,,53.48,,,,,,,,,,,,,,,,,
17309,1.52977E+12,0.62,1.07,0.58,0.46,,,,,,,,,4339,19.7,,,,,,,53.48,,,,,,,,,,,,,,,,,
17329,1.52977E+12,0.61,1.07,0.58,0.46,,,0.07,0.25,-1.02,1,0,0,4339,19.7,3.98,,85,22.01,25,,53.48,,,,,,,,,,,,,,,,,
17349,1.52977E+12,0.61,1.07,0.58,0.46,,,,,,,,,4096,20.9,,,,,,,53.48,,,40.846554,-96.767364,0,0.02,1112.3,5,2,0.1,0,0,-1,0,0,0,0
17369,1.52977E+12,0.61,1.07,0.58,0.46,,,0.06,0.25,-0.98,1,0,0,4096,20.9,3.84,,86,22.01,25,,53.35,,,,,,,,,,,,,,,,,
17389,1.52977E+12,0.61,1.07,0.58,0.46,,,,,,,,,3954,21.2,,,,,,,53.35,,,,,,,,,,,,,,,,,
17409,1.52977E+12,0.61,1.07,0.58,0.46,,,0.03,0.25,-1.02,1,0,1,3954,21.2,3.72,,86,22.01,25,,53.35,,,,,,,,,,,,,,,,,
17429,1.52977E+12,0.61,1.07,0.58,0.46,,,,,,,,,3954,21.2,,,,,,,53.35,,,,,,,,,,,,,,,,,
17449,1.52977E+12,0.61,1.07,0.58,0.46,,,0,0.21,-0.99,1,0,0,3924,0,3.59,,86,22.01,25,,53.35,,,40.846554,-96.767364,2.22,0.02,1114.7,5,2,0.1,0,0,-1,0,0,0,0
17469,1.52977E+12,0.62,1.07,0.58,0.46,,,,,,,,,3924,0,,,,,,,52.88,,,,,,,,,,,,,,,,,
17489,1.52977E+12,0.62,1.07,0.58,0.46,,,-0.01,0.19,-0.98,2,0,0,3849,0,3.98,,86,22.01,25,,52.88,,,,,,,,,,,,,,,,,
17509,1.52977E+12,0.61,1.08,0.58,0.46,,,,,,,,,3849,0,,,,,,,52.88,,,,,,,,,,,,,,,,,
17529,1.52977E+12,0.61,1.07,0.58,0.46,,,0.01,0.2,-1.03,2,0,0,3849,0,3.98,,86,22.01,25,,52.88,,,,,,,,,,,,,,,,,
17549,1.52977E+12,0.61,1.07,0.58,0.46,,,,,,,,,3710,21.3,,,,,,,52.88,,,40.84655,-96.767364,3.05,0.02,1116.4,5,2,0.1,0,0,-1,0,0,0,0
17569,1.52977E+12,0.61,1.08,0.58,0.46,,,0,0.21,-1.06,3,0,0,3710,21.3,3.97,,87,22.01,25,,51.7,,,,,,,,,,,,,,,,,
17589,1.52977E+12,0.62,1.07,0.58,0.46,,,,,,,,,3622,21,,,,,,,51.7,,,,,,,,,,,,,,,,,
17609,1.52977E+12,0.61,1.07,0.58,0.46,,,-0.02,0.18,-1.06,4,0,0,3622,21,3.82,,82,22.01,25,,51.7,,,,,,,,,,,,,,,,,
17629,1.52977E+12,0.62,1.08,0.58,0.47,,,,,,,,,3622,21,,,,,,,51.7,,,,,,,,,,,,,,,,,
17649,1.52977E+12,0.62,1.08,0.58,0.46,,,-0.03,0.2,-1.08,4,0,0,3556,0,3.96,,86,22.01,25,,51.7,,,40.84655,-96.767372,3.81,0.02,1118.2,5,2,0.1,0,0,-1,0,0,0,0
17669,1.52977E+12,0.62,1.08,0.58,0.46,,,,,,,,,3556,0,,,,,,,51.98,,,,,,,,,,,,,,,,,
17689,1.52977E+12,0.61,1.08,0.58,0.46,,,0,0.19,-1.06,5,0,0,3412,10.6,3.46,,86,22.01,25,,51.98,,,,,,,,,,,,,,,,,
17709,1.52977E+12,0.62,1.08,0.59,0.46,,,,,,,,,3412,10.6,,,,,,,51.98,,,,,,,,,,,,,,,,,
17729,1.52977E+12,0.62,1.08,0.59,0.46,,,0.04,0.25,-1,5,0,0,3412,10.6,3.46,,71,22.01,25,,51.98,,,,,,,,,,,,,,,,,
17749,1.52977E+12,0.62,1.08,0.59,0.47,,,,,,,,,3080,0,,,,,,,51.98,,,40.846546,-96.767372,4.36,0.021,1120.5,5,2,0.1,0,0,-1,0,0,0,0
17769,1.52977E+12,0.62,1.08,0.59,0.47,,,0,0.22,-0.97,5,0,0,3080,0,3,,88,22.01,25,,42.15,,,,,,,,,,,,,,,,,
17789,1.52977E+12,0.62,1.08,0.59,0.47,,,,,,,,,3022,21.4,,,,,,,42.15,,,,,,,,,,,,,,,,,
17809,1.52977E+12,0.62,1.08,0.59,0.46,,,0.01,0.2,-0.89,6,0,0,3022,21.4,3.71,,65,22.01,25,,42.15,,,,,,,,,,,,,,,,,
17829,1.52977E+12,0.62,1.08,0.58,0.47,,,,,,,,,3022,21.4,,,,,,,42.15,,,,,,,,,,,,,,,,,
17849,1.52977E+12,0.62,1.09,0.59,0.46,,,0.01,0.21,-1.03,6,0,0,2676,21.2,3.81,,92,22.01,25,,42.15,,,40.846546,-96.76738,4.92,0.021,1122.8,5,2,0.1,0,0,-1,0,0,0,0
17869,1.52977E+12,0.62,1.08,0.58,0.47,,,,,,,,,2676,21.2,,,,,,,51.65,,,,,,,,,,,,,,,,,
17889,1.52977E+12,0.62,1.08,0.58,0.47,,,0.08,0.17,-1.01,7,0,0,2741,21.2,3.58,,92,22.01,25,,51.65,,,,,,,,,,,,,,,,,
17909,1.52977E+12,0.62,1.08,0.58,0.47,,,,,,,,,2741,21.2,,,,,,,51.65,,,,,,,,,,,,,,,,,
17929,1.52977E+12,0.62,1.09,0.59,0.46,,,0,0.17,-0.92,7,0,0,2741,21.2,3.58,,93,22.01,25,,51.65,,,,,,,,,,,,,,,,,
17949,1.52977E+12,0.63,1.08,0.59,0.47,,,,,,,,,2677,0,,,,,,,51.65,,,40.846542,-96.76738,5.25,0.021,1125.2,5,2,0.1,0,0,-1,0,0,0,0
17969,1.52977E+12,0.63,1.08,0.59,0.46,,,0.05,0.17,-1.05,8,0,0,2677,0,1.4,,94,22.01,25,,42.98,,,,,,,,,,,,,,,,,
17989,1.52977E+12,0.62,1.08,0.59,0.47,,,,,,,,,2751,0,,,,,,,42.98,,,,,,,,,,,,,,,,,
18009,1.52977E+12,0.62,1.09,0.59,0.47,,,0.08,0.13,-0.94,9,0,0,2751,0,3.6,,93,22.01,25,,42.98,,,,,,,,,,,,,,,,,
18029,1.52977E+12,0.62,1.09,0.59,0.47,,,,,,,,,2751,0,,,,,,,42.98,,,,,,,,,,,,,,,,,
18049,1.52977E+12,0.62,1.09,0.59,0.47,14.36,,0.04,0.1,-0.95,9,0,0,2774,21.2,3.76,70,93,22.01,25,41,42.98,46,22,40.846539,-96.767387,5.72,0.021,1127.4,5,2,0.1,0,0,-1,0,0,0,0
18069,1.52977E+12,0.63,1.08,0.59,0.47,,,,,,,,,2774,21.2,,,,,,,41.8,,,,,,,,,,,,,,,,,
18089,1.52977E+12,0.62,1.08,0.59,0.47,,,0.1,0.09,-1.09,10,0,0,2819,23.1,3.66,,93,22.01,25,,41.8,,,,,,,,,,,,,,,,,
18109,1.52977E+12,0.62,1.09,0.59,0.46,,,,,,,,,2819,23.1,,,,,,,41.8,,,,,,,,,,,,,,,,,
18129,1.52977E+12,0.62,1.09,0.59,0.47,,,0.14,0.05,-1.09,10,1,0,2819,23.1,3.66,,93,22.01,25,,41.8,,,,,,,,,,,,,,,,,
18149,1.52977E+12,0.63,1.09,0.59,0.47,,,,,,,,,2919,24.6,,,,,,,41.8,,,40.846535,-96.767395,6,0.021,1129.4,5,2,0.1,0,0,-1,0,0,0,0
18169,1.52977E+12,0.63,1.08,0.59,0.47,,,0.14,-0.04,-1.02,10,0,0,2919,24.6,3.56,,93,22.01,25,,45,,,,,,,,,,,,,,,,,
18189,1.52977E+12,0.63,1.09,0.59,0.47,,,,,,,,,2988,0,,,,,,,45,,,,,,,,,,,,,,,,,
18209,1.52977E+12,0.62,1.09,0.59,0.47,,,0.13,-0.1,-0.93,11,0,0,2988,0,3.46,,91,22.01,25,,45,,,,,,,,,,,,,,,,,
18229,1.52977E+12,0.63,1.09,0.59,0.47,,,,,,,,,2988,0,,,,,,,45,,,,,,,,,,,,,,,,,
18249,1.52977E+12,0.63,1.09,0.59,0.47,,,0.12,-0.13,-0.85,11,0,0,2867,0,3.25,,93,22.01,25,,45,,,40.846531,-96.767395,6.19,0.021,1131.1,5,2,0.1,0,0,-1,0,0,0,0
18269,1.52977E+12,0.63,1.09,0.59,0.47,,,,,,,,,2867,0,,,,,,,43.92,,,,,,,,,,,,,,,,,
18289,1.52977E+12,0.63,1.09,0.59,0.47,,,0.09,-0.09,-0.78,11,0,0,2932,23.7,1.4,,93,22.01,25,,43.92,,,,,,,,,,,,,,,,,
18309,1.52977E+12,0.62,1.09,0.59,0.47,,,,,,,,,2932,23.7,,,,,,,43.92,,,,,,,,,,,,,,,,,
18329,1.52977E+12,0.62,1.09,0.59,0.47,,,0.04,-0.05,-0.81,11,0,1,2932,23.7,1.4,,93,22.01,25,,43.92,,,,,,,,,,,,,,,,,
18349,1.52977E+12,0.63,1.09,0.59,0.47,,,,,,,,,2969,16.4,,,,,,,43.92,,,40.846527,-96.767403,6.32,0.021,1132.4,5,2,0.1,0,0,-1,0,0,0,0
18369,1.52977E+12,0.63,1.09,0.59,0.47,,,0.05,0.01,-0.84,11,-1,1,2969,16.4,2.81,,91,22.01,25,,45.92,,,,,,,,,,,,,,,,,
18389,1.52977E+12,0.63,1.09,0.59,0.47,,,,,,,,,2913,0,,,,,,,45.92,,,,,,,,,,,,,,,,,
18409,1.52977E+12,0.62,1.09,0.59,0.47,,,0.04,0.05,-0.95,11,-1,0,2913,0,1.53,,88,22.01,25,,45.92,,,,,,,,,,,,,,,,,
18429,1.52977E+12,0.62,1.09,0.59,0.47,,,,,,,,,2913,0,,,,,,,45.92,,,,,,,,,,,,,,,,,
18449,1.52977E+12,0.63,1.09,0.59,0.47,,,0.08,0.07,-1.08,11,-1,0,2958,8,3.71,,86,22.01,25,,45.92,,,40.846527,-96.767403,6.19,0.022,1133.6,5,2,0.1,0,0,-1,0,0,0,0
18469,1.52977E+12,0.62,1.09,0.59,0.47,,,,,,,,,2958,8,,,,,,,43.95,,,,,,,,,,,,,,,,,
18489,1.52977E+12,0.62,1.1,0.59,0.47,,,0.11,0.09,-1.12,11,-1,0,3103,7.7,3.41,,86,22.01,25,,43.95,,,,,,,,,,,,,,,,,
18509,1.52977E+12,0.63,1.09,0.59,0.47,,,,,,,,,3103,7.7,,,,,,,43.95,,,,,,,,,,,,,,,,,
18529,1.52977E+12,0.63,1.1,0.59,0.47,,,0.11,0.13,-1.09,11,-1,0,3103,7.7,3.41,,83,22.01,25,,43.95,,,,,,,,,,,,,,,,,
18549,1.52977E+12,0.63,1.1,0.59,0.47,,,,,,,,,3313,7.5,,,,,,,43.95,,,40.846527,-96.767403,6.22,0.022,1135,5,2,0.1,0,0,-1,0,0,0,0
18569,1.52977E+12,0.63,1.1,0.59,0.47,,,0.08,0.03,-1.09,12,-1,0,3313,7.5,3.42,,79,22.01,25,,42.63,,,,,,,,,,,,,,,,,
18589,1.52977E+12,0.63,1.1,0.59,0.47,,,,,,,,,3725,9.4,,,,,,,42.63,,,,,,,,,,,,,,,,,
18609,1.52977E+12,0.63,1.09,0.6,0.47,,,0.05,-0.03,-0.96,12,-1,1,3725,9.4,3.56,,78,22.01,25,,42.63,,,,,,,,,,,,,,,,,
18629,1.52977E+12,0.63,1.09,0.59,0.47,,,,,,,,,3725,9.4,,,,,,,42.63,,,,,,,,,,,,,,,,,
18649,1.52977E+12,0.63,1.1,0.6,0.47,,,0.08,-0.04,-0.97,12,-1,1,3752,0,1.4,,80,22.01,25,,42.63,,,40.846523,-96.76741,6.19,0.022,1136.2,5,2,0.1,0,0,-1,0,0,0,0
18669,1.52977E+12,0.62,1.1,0.59,0.47,,,,,,,,,3752,0,,,,,,,52.77,,,,,,,,,,,,,,,,,
18689,1.52977E+12,0.62,1.1,0.6,0.47,,,0.07,0,-0.96,12,-1,1,3962,12.8,3.73,,80,22.01,25,,52.77,,,,,,,,,,,,,,,,,
18709,1.52977E+12,0.63,1.09,0.6,0.47,,,,,,,,,3962,12.8,,,,,,,52.77,,,,,,,,,,,,,,,,,
18729,1.52977E+12,0.63,1.1,0.59,0.47,,,0.08,0.02,-0.98,12,-1,1,3962,12.8,3.73,,79,22.01,25,,52.77,,,,,,,,,,,,,,,,,
18749,1.52977E+12,0.63,1.1,0.6,0.47,,,,,,,,,3849,6.9,,,,,,,52.77,,,40.84652,-96.76741,6.23,0.022,1137.7,5,2,0.1,0,0,-1,0,0,0,0
18769,1.52977E+12,0.63,1.1,0.6,0.47,,,0.06,-0.02,-1.03,12,-1,1,3849,6.9,2.84,,81,22.01,25,,51.92,,,,,,,,,,,,,,,,,
18789,1.52977E+12,0.63,1.1,0.59,0.47,,,,,,,,,3959,0,,,,,,,51.92,,,,,,,,,,,,,,,,,
18809,1.52977E+12,0.63,1.1,0.6,0.47,,,0.08,-0.06,-0.91,12,0,1,3959,0,3.71,,81,22.01,25,,51.92,,,,,,,,,,,,,,,,,
18829,1.52977E+12,0.63,1.1,0.6,0.47,,,,,,,,,3959,0,,,,,,,51.92,,,,,,,,,,,,,,,,,
18849,1.52977E+12,0.63,1.1,0.6,0.47,,,0.06,-0.02,-1.08,12,0,1,4217,13.3,3.84,,81,22.01,25,,51.92,,,40.846516,-96.767418,5.96,0.022,1139.1,5,2,0.1,0,0,-1,0,0,0,0
18869,1.52977E+12,0.64,1.1,0.59,0.47,,,,,,,,,4217,13.3,,,,,,,53.98,,,,,,,,,,,,,,,,,
18889,1.52977E+12,0.63,1.09,0.6,0.47,,,0.09,-0.04,-0.94,12,0,0,4127,9.6,2.74,,81,22.01,25,,53.98,,,,,,,,,,,,,,,,,
18909,1.52977E+12,0.63,1.1,0.59,0.47,,,,,,,,,4127,9.6,,,,,,,53.98,,,,,,,,,,,,,,,,,
18929,1.52977E+12,0.63,1.1,0.6,0.47,,,0.01,-0.02,-1.09,12,0,0,4127,9.6,2.74,,79,22.01,25,,53.98,,,,,,,,,,,,,,,,,
18949,1.52977E+12,0.63,1.1,0.6,0.47,,,,,,,,,4161,5.3,,,,,,,53.98,,,40.846516,-96.767418,6.09,0.022,1140.7,5,2,0.1,0,0,-1,0,0,0,0
18969,1.52977E+12,0.63,1.11,0.6,0.47,,,0.1,-0.01,-0.97,13,1,-1,4161,5.3,2.85,,76,22.01,25,,23.83,,,,,,,,,,,,,,,,,
18989,1.52977E+12,0.63,1.11,0.6,0.47,,,,,,,,,4108,4,,,,,,,23.83,,,,,,,,,,,,,,,,,
19009,1.52977E+12,0.63,1.1,0.6,0.47,,,0.08,-0.06,-1.1,13,0,0,4108,4,2.93,,73,22.01,25,,23.83,,,,,,,,,,,,,,,,,
19029,1.52977E+12,0.63,1.1,0.6,0.48,,,,,,,,,4108,4,,,,,,,23.83,,,,,,,,,,,,,,,,,
19049,1.52977E+12,0.63,1.11,0.6,0.47,14.41,,0.12,-0.06,-0.97,12,1,-1,4029,4.1,3.21,70,70,22.01,25,40,23.83,47,22,40.846512,-96.767426,6,0.023,1142.7,5,2,0.1,0,0,-1,0,0,0,0
19069,1.52977E+12,0.63,1.1,0.6,0.47,,,,,,,,,4029,4.1,,,,,,,53.63,,,,,,,,,,,,,,,,,
19089,1.52977E+12,0.64,1.1,0.6,0.47,,,0.17,-0.03,-1,13,1,0,3943,0,2.63,,70,22.01,25,,53.63,,,,,,,,,,,,,,,,,
19109,1.52977E+12,0.63,1.1,0.6,0.47,,,,,,,,,3943,0,,,,,,,53.63,,,,,,,,,,,,,,,,,
19129,1.52977E+12,0.63,1.1,0.6,0.47,,,0.19,-0.04,-1.03,12,1,0,3943,0,2.63,,70,22.01,25,,53.63,,,,,,,,,,,,,,,,,
19149,1.52977E+12,0.64,1.11,0.6,0.47,,,,,,,,,3804,4.2,,,,,,,53.63,,,40.846508,-96.767426,5.91,0.023,1144.4,5,2,0.1,0,0,-1,0,0,0,0
19169,1.52977E+12,0.64,1.11,0.6,0.47,,,0.17,-0.05,-1.01,12,1,0,3804,4.2,3.21,,71,22.01,25,,52.4,,,,,,,,,,,,,,,,,
19189,1.52977E+12,0.64,1.11,0.6,0.47,,,,,,,,,3707,3.8,,,,,,,52.4,,,,,,,,,,,,,,,,,
19209,1.52977E+12,0.64,1.11,0.6,0.47,,,0.16,-0.04,-0.95,12,1,1,3707,3.8,3.1,,70,22.01,25,,52.4,,,,,,,,,,,,,,,,,
19229,1.52977E+12,0.63,1.11,0.6,0.47,,,,,,,,,3707,3.8,,,,,,,52.4,,,,,,,,,,,,,,,,,
19249,1.52977E+12,0.64,1.11,0.6,0.47,,,0.16,-0.06,-0.97,12,1,1,3587,3.5,2.97,,70,22.01,25,,52.4,,,40.846504,-96.767433,5.99,0.023,1145.8,5,2,0.1,0,0,-1,0,0,0,0
19269,1.52977E+12,0.63,1.11,0.6,0.47,,,,,,,,,3587,3.5,,,,,,,50.67,,,,,,,,,,,,,,,,,
19289,1.52977E+12,0.64,1.11,0.6,0.47,,,0.11,-0.07,-1.03,12,1,1,3418,3.6,2.9,,70,22.01,25,,50.67,,,,,,,,,,,,,,,,,
19309,1.52977E+12,0.64,1.11,0.6,0.47,,,,,,,,,3418,3.6,,,,,,,50.67,,,,,,,,,,,,,,,,,
19329,1.52977E+12,0.64,1.11,0.58,0.47,,,0.12,-0.05,-0.98,12,1,1,3418,3.6,2.9,,69,22.01,25,,50.67,,,,,,,,,,,,,,,,,
19349,1.52977E+12,0.64,1.11,0.6,0.47,,,,,,,,,3396,3.5,,,,,,,50.67,,,40.846504,-96.767441,5.93,0.023,1147,5,2,0.1,0,0,-1,0,0,0,0
19369,1.52977E+12,0.64,1.11,0.6,0.47,,,0.12,-0.07,-1.01,12,1,1,3396,3.5,2.79,,69,22.01,25,,49.9,,,,,,,,,,,,,,,,,
19389,1.52977E+12,0.64,1.11,0.6,0.47,,,,,,,,,3373,3.5,,,,,,,49.9,,,,,,,,,,,,,,,,,
19409,1.52977E+12,0.64,1.11,0.6,0.48,,,0.11,-0.07,-0.99,12,1,1,3373,3.5,2.78,,66,22.01,25,,49.9,,,,,,,,,,,,,,,,,
19429,1.52977E+12,0.64,1.11,0.6,0.48,,,,,,,,,3373,3.5,,,,,,,49.9,,,,,,,,,,,,,,,,,
19449,1.52977E+12,0.64,1.11,0.6,0.47,,,0.07,-0.08,-1.06,12,1,1,3407,3.6,2.75,,68,22.01,25,,49.9,,,40.846504,-96.767441,5.87,0.023,1148,5,2,0.1,0,0,-1,0,0,0,0
19469,1.52977E+12,0.64,1.11,0.6,0.48,,,,,,,,,3407,3.6,,,,,,,51.5,,,,,,,,,,,,,,,,,
19489,1.52977E+12,0.64,1.11,0.6,0.48,,,0.07,-0.06,-1,12,1,0,3394,0,3.01,,68,22.01,25,,51.5,,,,,,,,,,,,,,,,,
19509,1.52977E+12,0.64,1.11,0.59,0.48,,,,,,,,,3394,0,,,,,,,51.5,,,,,,,,,,,,,,,,,
19529,1.52977E+12,0.64,1.11,0.6,0.47,,,0.05,-0.09,-1.02,12,1,0,3394,0,3.01,,68,22.01,25,,51.5,,,,,,,,,,,,,,,,,
19549,1.52977E+12,0.64,1.11,0.6,0.48,,,,,,,,,3383,3.6,,,,,,,51.5,,,40.8465,-96.767441,5.81,0.023,1148.7,5,2,0,0,0,-1,0,0,0,0
19569,1.52977E+12,0.64,1.11,0.6,0.47,,,0.08,-0.06,-1,12,1,0,3383,3.6,2.93,,66,22.01,25,,50.8,,,,,,,,,,,,,,,,,
19589,1.52977E+12,0.64,1.11,0.6,0.48,,,,,,,,,3334,3.4,,,,,,,50.8,,,,,,,,,,,,,,,,,
19609,1.52977E+12,0.64,1.12,0.6,0.48,,,0.05,-0.09,-1.03,12,1,0,3334,3.4,3.03,,68,22.01,25,,50.8,,,,,,,,,,,,,,,,,
19629,1.52977E+12,0.64,1.11,0.61,0.48,,,,,,,,,3334,3.4,,,,,,,50.8,,,,,,,,,,,,,,,,,
19649,1.52977E+12,0.64,1.11,0.61,0.48,,,0.05,-0.08,-1,12,0,0,3310,3.3,3.04,,68,22.01,25,,50.8,,,40.846497,-96.767441,5.88,0.024,1149.8,5,2,0,0,0,-1,0,0,0,0
19669,1.52977E+12,0.64,1.11,0.61,0.48,,,,,,,,,3310,3.3,,,,,,,51.27,,,,,,,,,,,,,,,,,
19689,1.52977E+12,0.64,1.12,0.6,0.48,,,0.07,-0.06,-1,11,0,0,3248,3.4,3,,68,22.01,25,,51.27,,,,,,,,,,,,,,,,,
19709,1.52977E+12,0.64,1.11,0.61,0.48,,,,,,,,,3248,3.4,,,,,,,51.27,,,,,,,,,,,,,,,,,
19729,1.52977E+12,0.64,1.11,0.61,0.47,,,0.07,-0.12,-1.02,11,0,0,3248,3.4,3,,69,22.01,25,,51.27,,,,,,,,,,,,,,,,,
19749,1.52977E+12,0.65,1.11,0.61,0.47,,,,,,,,,3129,0,,,,,,,51.27,,,40.846493,-96.767441,5.89,0.024,1150.8,5,2,0,0,0,-1,0,0,0,0
19769,1.52977E+12,0.65,1.12,0.6,0.48,,,0.03,-0.17,-1.05,11,1,0,3129,0,2.98,,71,22.01,25,,47.5,,,,,,,,,,,,,,,,,
19789,1.52977E+12,0.64,1.12,0.61,0.47,,,,,,,,,2875,0,,,,,,,47.5,,,,,,,,,,,,,,,,,
19809,1.52977E+12,0.64,1.12,0.61,0.48,,,0.05,-0.22,-1.02,11,1,0,2875,0,2.92,,74,22.01,25,,47.5,,,,,,,,,,,,,,,,,
19829,1.52977E+12,0.65,1.11,0.61,0.48,,,,,,,,,2875,0,,,,,,,47.5,,,,,,,,,,,,,,,,,
19849,1.52977E+12,0.65,1.12,0.61,0.48,,,0.05,-0.2,-0.91,11,0,0,2748,0,2.9,,65,22.01,25,,47.5,,,40.846493,-96.767448,5.81,0.024,1151.7,5,2,0,0,0,-1,0,0,0,0
19869,1.52977E+12,0.64,1.12,0.61,0.47,,,,,,,,,2748,0,,,,,,,39.08,,,,,,,,,,,,,,,,,
19889,1.52977E+12,0.65,1.12,0.61,0.48,,,0.02,-0.18,-1.01,11,0,0,2639,0,3.38,,65,22.01,25,,39.08,,,,,,,,,,,,,,,,,
19909,1.52977E+12,0.64,1.12,0.61,0.47,,,,,,,,,2639,0,,,,,,,39.08,,,,,,,,,,,,,,,,,
19929,1.52977E+12,0.65,1.12,0.61,0.48,,,0.03,-0.16,-0.95,10,0,0,2639,0,3.38,,57,22.01,25,,39.08,,,,,,,,,,,,,,,,,
19949,1.52977E+12,0.65,1.12,0.6,0.48,,,,,,,,,2558,0,,,,,,,39.08,,,40.846489,-96.767448,5.84,0.024,1152.9,5,2,0,0,0,-1,0,0,0,0
19969,1.52977E+12,0.65,1.12,0.61,0.48,,,0.05,-0.13,-1.06,10,0,0,2558,0,2.87,,79,22.01,25,,39.73,,,,,,,,,,,,,,,,,
19989,1.52977E+12,0.64,1.12,0.61,0.48,,,,,,,,,2648,0,,,,,,,39.73,,,,,,,,,,,,,,,,,
20009,1.52977E+12,0.64,1.12,0.61,0.48,,,0.04,-0.14,-0.94,9,0,0,2648,0,3.04,,80,22.01,25,,39.73,,,,,,,,,,,,,,,,,
20029,1.52977E+12,0.64,1.12,0.61,0.48,,,,,,,,,2648,0,,,,,,,39.73,,,,,,,,,,,,,,,,,
20049,1.52977E+12,0.65,1.12,0.61,0.48,14.24,,0.01,-0.1,-1.01,9,0,0,2818,7.8,3.6,70,67,22.01,25,40,39.73,47,22,40.846485,-96.767456,5.58,0.024,1153.5,5,2,0,0,0,-1,0,0,0,0
20069,1.52977E+12,0.65,1.12,0.61,0.48,,,,,,,,,2818,7.8,,,,,,,42.73,,,,,,,,,,,,,,,,,
20089,1.52977E+12,0.65,1.11,0.61,0.48,,,0.04,-0.09,-1.12,8,1,0,2857,9,3.63,,67,22.01,25,,42.73,,,,,,,,,,,,,,,,,
20109,1.52977E+12,0.64,1.12,0.61,0.48,,,,,,,,,2857,9,,,,,,,42.73,,,,,,,,,,,,,,,,,
20129,1.52977E+12,0.65,1.12,0.61,0.48,,,0.08,-0.1,-1.18,8,1,0,2857,9,3.63,,78,22.01,25,,42.73,,,,,,,,,,,,,,,,,
20149,1.52977E+12,0.65,1.12,0.61,0.48,,,,,,,,,3128,10.7,,,,,,,42.73,,,40.846485,-96.767456,5.85,0.024,1154.2,5,2,0,0,0,-1,0,0,0,0
20169,1.52977E+12,0.65,1.12,0.61,0.48,,,0.1,-0.06,-1.18,7,1,0,3128,10.7,3.65,,84,22.01,25,,48.95,,,,,,,,,,,,,,,,,
20189,1.52977E+12,0.65,1.13,0.61,0.47,,,,,,,,,3106,0,,,,,,,48.95,,,,,,,,,,,,,,,,,
20209,1.52977E+12,0.65,1.13,0.61,0.47,,,0.11,0,-1.13,7,0,0,3106,0,1.72,,84,22.01,25,,48.95,,,,,,,,,,,,,,,,,
20229,1.52977E+12,0.65,1.12,0.61,0.48,,,,,,,,,3106,0,,,,,,,48.95,,,,,,,,,,,,,,,,,
20249,1.52977E+12,0.65,1.13,0.6,0.48,,,0.08,0.03,-1.08,6,0,0,3188,0,2.82,,82,22.01,25,,48.95,,,40.846485,-96.767464,5.56,0.025,1154.1,5,2,0,0,0,-1,0,0,0,0
20269,1.52977E+12,0.65,1.12,0.61,0.48,,,,,,,,,3188,0,,,,,,,47.63,,,,,,,,,,,,,,,,,
20289,1.52977E+12,0.65,1.12,0.61,0.48,,,0.11,0.04,-1.02,6,0,0,3036,0,2.77,,82,22.01,25,,47.63,,,,,,,,,,,,,,,,,
20309,1.52977E+12,0.65,1.12,0.61,0.48,,,,,,,,,3036,0,,,,,,,47.63,,,,,,,,,,,,,,,,,
20329,1.52977E+12,0.65,1.13,0.62,0.48,,,0.05,-0.04,-1.01,6,0,0,3036,0,2.77,,71,22.01,25,,47.63,,,,,,,,,,,,,,,,,
20349,1.52977E+12,0.65,1.12,0.61,0.48,,,,,,,,,3252,0,,,,,,,47.63,,,40.846481,-96.767464,5.54,0.025,1154.2,6,2,0.1,0,0,-1,0,0,0,0
20369,1.52977E+12,0.65,1.13,0.61,0.48,,,0.09,-0.04,-1,6,0,0,3252,0,3.35,,78,22.01,25,,51.3,,,,,,,,,,,,,,,,,
20389,1.52977E+12,0.65,1.13,0.61,0.48,,,,,,,,,3497,1.6,,,,,,,51.3,,,,,,,,,,,,,,,,,
20409,1.52977E+12,0.65,1.13,0.61,0.48,,,0.08,-0.07,-1.04,6,0,0,3497,1.6,3.25,,74,22.01,25,,51.3,,,,,,,,,,,,,,,,,
20429,1.52977E+12,0.65,1.13,0.61,0.48,,,,,,,,,3497,1.6,,,,,,,51.3,,,,,,,,,,,,,,,,,
20449,1.52977E+12,0.65,1.13,0.61,0.48,,,0.09,-0.06,-1.04,6,0,0,3633,1.3,3.1,,62,22.01,25,,51.3,,,40.846458,-96.767471,5.61,0.025,1180.8,6,2,0.1,0,0,-1,0,0,0,0
20469,1.52977E+12,0.65,1.13,0.61,0.48,,,,,,,,,3633,1.3,,,,,,,56.58,,,,,,,,,,,,,,,,,
20489,1.52977E+12,0.65,1.13,0.61,0.48,,,0.08,-0.07,-1.05,6,0,0,3610,0,2.67,,62,22.01,25,,56.58,,,,,,,,,,,,,,,,,
20509,1.52977E+12,0.65,1.13,0.62,0.48,,,,,,,,,3610,0,,,,,,,56.58,,,,,,,,,,,,,,,,,
20529,1.52977E+12,0.65,1.13,0.61,0.48,,,0.12,-0.03,-1.04,5,0,0,3610,0,2.67,,72,22.01,25,,56.58,,,,,,,,,,,,,,,,,
20549,1.52977E+12,0.65,1.13,0.61,0.48,,,,,,,,,3598,0.2,,,,,,,56.58,,,40.846447,-96.767479,5.54,0.025,1191.4,6,2,0.1,0,0,-1,0,0,0,0
20569,1.52977E+12,0.65,1.13,0.61,0.48,,,0.11,-0.04,-1.01,5,0,0,3598,0.2,3.12,,66,22.01,25,,58.67,,,,,,,,,,,,,,,,,
20589,1.52977E+12,0.65,1.13,0.62,0.48,,,,,,,,,3643,7,,,,,,,58.67,,,,,,,,,,,,,,,,,
20609,1.52977E+12,0.65,1.13,0.61,0.48,,,0.09,-0.05,-1,5,0,0,3643,7,3.54,,78,22.01,25,,58.67,,,,,,,,,,,,,,,,,
20629,1.52977E+12,0.65,1.13,0.61,0.49,,,,,,,,,3643,7,,,,,,,58.67,,,,,,,,,,,,,,,,,
20649,1.52977E+12,0.65,1.13,0.62,0.48,,,0.08,-0.05,-0.99,5,0,0,3763,0,2.1,,77,22.01,25,,58.67,,,40.846443,-96.767479,5.55,0.025,1197.4,6,2,0.1,0,0,-1,0,0,0,0
20669,1.52977E+12,0.66,1.13,0.62,0.48,,,,,,,,,3763,0,,,,,,,53.5,,,,,,,,,,,,,,,,,
20689,1.52977E+12,0.65,1.13,0.62,0.48,,,0.08,-0.03,-1.04,5,0,1,3898,14.8,3.77,,77,22.01,25,,53.5,,,,,,,,,,,,,,,,,
20709,1.52977E+12,0.65,1.13,0.61,0.48,,,,,,,,,3898,14.8,,,,,,,53.5,,,,,,,,,,,,,,,,,
20729,1.52977E+12,0.65,1.13,0.62,0.48,,,0.02,-0.06,-1.09,5,-1,1,3898,14.8,3.77,,82,22.01,25,,53.5,,,,,,,,,,,,,,,,,
20749,1.52977E+12,0.65,1.14,0.62,0.48,,,,,,,,,3977,19.4,,,,,,,53.5,,,40.846439,-96.767479,5.43,0.025,1200.3,6,2,0.1,0,0,-1,0,0,0,0
20769,1.52977E+12,0.65,1.13,0.62,0.48,,,0.05,-0.08,-0.99,5,0,1,3977,19.4,3.77,,72,22.01,25,,53.5,,,,,,,,,,,,,,,,,
20789,1.52977E+12,0.66,1.13,0.62,0.48,,,,,,,,,4164,13.8,,,,,,,53.5,,,,,,,,,,,,,,,,,
20809,1.52977E+12,0.66,1.14,0.61,0.49,,,-0.04,-0.09,-1.13,5,-1,1,4164,13.8,4,,83,22.01,25,,53.5,,,,,,,,,,,,,,,,,
20829,1.52977E+12,0.65,1.14,0.62,0.48,,,,,,,,,4164,13.8,,,,,,,53.5,,,,,,,,,,,,,,,,,
20849,1.52977E+12,0.66,1.14,0.62,0.48,,,0.02,-0.03,-1.09,5,0,1,4222,3.1,2.21,,78,22.01,25,,53.5,,,40.846436,-96.767479,5.35,0.025,1202.1,6,2,0.1,0,0,-1,0,0,0,0
20869,1.52977E+12,0.66,1.13,0.62,0.48,,,,,,,,,4222,3.1,,,,,,,38.58,,,,,,,,,,,,,,,,,
20889,1.52977E+12,0.65,1.13,0.62,0.48,,,0.04,-0.04,-0.96,5,0,0,4286,2.9,2.54,,78,22.01,25,,38.58,,,,,,,,,,,,,,,,,
20909,1.52977E+12,0.65,1.14,0.62,0.48,,,,,,,,,4286,2.9,,,,,,,38.58,,,,,,,,,,,,,,,,,
20929,1.52977E+12,0.65,1.14,0.62,0.48,,,0,-0.1,-1.07,5,-1,0,4286,2.9,2.54,,74,22.01,25,,38.58,,,,,,,,,,,,,,,,,
20949,1.52977E+12,0.66,1.14,0.62,0.48,,,,,,,,,4230,0,,,,,,,38.58,,,40.846432,-96.767487,5.36,0.026,1202.7,6,2,0.1,0,0,-1,0,0,0,0
20969,1.52977E+12,0.66,1.14,0.62,0.49,,,0.07,-0.06,-0.99,4,0,0,4230,0,3.3,,72,22.01,25,,52.88,,,,,,,,,,,,,,,,,
20989,1.52977E+12,0.66,1.14,0.62,0.48,,,,,,,,,4136,3.4,,,,,,,52.88,,,,,,,,,,,,,,,,,
21009,1.52977E+12,0.66,1.13,0.62,0.49,,,-0.01,-0.08,-1.05,4,0,1,4136,3.4,3.2,,71,22.01,25,,52.88,,,,,,,,,,,,,,,,,
21029,1.52977E+12,0.66,1.14,0.62,0.49,,,,,,,,,4136,3.4,,,,,,,52.88,,,,,,,,,,,,,,,,,
21049,1.52977E+12,0.66,1.14,0.62,0.48,14.41,,-0.02,-0.1,-0.96,4,0,0,3929,3,3.05,70,70,22.01,25,40,52.88,47,22,40.846432,-96.767487,5.4,0.026,1203.6,6,2,0.1,0,0,-1,0,0,0,0
21069,1.52977E+12,0.66,1.14,0.62,0.48,,,,,,,,,3929,3,,,,,,,52.75,,,,,,,,,,,,,,,,,
21089,1.52977E+12,0.66,1.14,0.62,0.48,,,0.01,-0.08,-0.95,4,0,0,3777,3.2,2.91,,70,22.01,25,,52.75,,,,,,,,,,,,,,,,,
21109,1.52977E+12,0.66,1.14,0.62,0.48,,,,,,,,,3777,3.2,,,,,,,52.75,,,,,,,,,,,,,,,,,
21129,1.52977E+12,0.66,1.14,0.62,0.48,,,0.03,-0.07,-0.98,4,0,0,3777,3.2,2.91,,69,22.01,25,,52.75,,,,,,,,,,,,,,,,,
21149,1.52977E+12,0.66,1.14,0.62,0.48,,,,,,,,,3701,3.2,,,,,,,52.75,,,40.846428,-96.767494,5.22,0.026,1204.1,6,2,0.1,0,0,-1,0,0,0,0
21169,1.52977E+12,0.66,1.14,0.62,0.48,,,0.04,-0.09,-0.99,4,0,0,3701,3.2,2.83,,69,22.01,25,,51.42,,,,,,,,,,,,,,,,,
21189,1.52977E+12,0.66,1.14,0.62,0.49,,,,,,,,,3624,3.1,,,,,,,51.42,,,,,,,,,,,,,,,,,
21209,1.52977E+12,0.66,1.14,0.62,0.49,,,0.05,-0.1,-1.04,4,0,0,3624,3.1,2.8,,69,22.01,25,,51.42,,,,,,,,,,,,,,,,,
21229,1.52977E+12,0.66,1.14,0.62,0.49,,,,,,,,,3624,3.1,,,,,,,51.42,,,,,,,,,,,,,,,,,
21249,1.52977E+12,0.66,1.13,0.62,0.49,,,0.06,-0.08,-0.96,4,0,0,3444,3.2,2.78,,69,22.01,25,,51.42,,,40.846428,-96.767494,5.38,0.026,1204.8,6,2,0.1,0,0,-1,0,0,0,0
21269,1.52977E+12,0.66,1.14,0.62,0.49,,,,,,,,,3444,3.2,,,,,,,51.67,,,,,,,,,,,,,,,,,
21289,1.52977E+12,0.66,1.14,0.62,0.49,,,0.05,-0.1,-1,4,0,0,3392,3.3,2.78,,69,22.01,25,,51.67,,,,,,,,,,,,,,,,,
21309,1.52977E+12,0.66,1.14,0.62,0.49,,,,,,,,,3392,3.3,,,,,,,51.67,,,,,,,,,,,,,,,,,
21329,1.52977E+12,0.66,1.14,0.62,0.49,,,0.09,-0.08,-0.95,4,0,0,3392,3.3,2.78,,69,22.01,25,,51.67,,,,,,,,,,,,,,,,,
21349,1.52977E+12,0.66,1.14,0.62,0.49,,,,,,,,,3412,3.4,,,,,,,51.67,,,40.846428,-96.767494,5.2,0.026,1205.3,6,2,0.1,0,0,-1,0,0,0,0
21369,1.52977E+12,0.66,1.15,0.62,0.49,,,0.08,-0.12,-1,4,0,0,3412,3.4,2.78,,69,22.01,25,,51.92,,,,,,,,,,,,,,,,,
21389,1.52977E+12,0.66,1.14,0.62,0.49,,,,,,,,,3445,3.4,,,,,,,51.92,,,,,,,,,,,,,,,,,
21409,1.52977E+12,0.67,1.15,0.62,0.49,,,0.06,-0.09,-1,4,0,0,3445,3.4,2.77,,68,22.01,25,,51.92,,,,,,,,,,,,,,,,,
21429,1.52977E+12,0.66,1.15,0.62,0.49,,,,,,,,,3445,3.4,,,,,,,51.92,,,,,,,,,,,,,,,,,
21449,1.52977E+12,0.66,1.15,0.63,0.49,,,0.06,-0.09,-1,4,0,0,3427,3.2,2.77,,68,22.01,25,,51.92,,,40.846424,-96.767502,5.05,0.026,1205.9,6,2,0.1,0,0,-1,0,0,0,0
21469,1.52977E+12,0.67,1.15,0.62,0.49,,,,,,,,,3427,3.2,,,,,,,50.88,,,,,,,,,,,,,,,,,
21489,1.52977E+12,0.67,1.14,0.62,0.49,,,0.04,-0.12,-1,4,0,0,3436,3.4,2.74,,68,22.01,25,,50.88,,,,,,,,,,,,,,,,,
21509,1.52977E+12,0.66,1.15,0.62,0.48,,,,,,,,,3436,3.4,,,,,,,50.88,,,,,,,,,,,,,,,,,
21529,1.52977E+12,0.67,1.14,0.63,0.49,,,0.05,-0.09,-0.97,3,0,0,3436,3.4,2.74,,68,22.01,25,,50.88,,,,,,,,,,,,,,,,,
21549,1.52977E+12,0.66,1.15,0.63,0.48,,,,,,,,,3444,3.4,,,,,,,50.88,,,40.846424,-96.767502,5.32,0.027,1206.6,6,2,0.1,0,0,-1,0,0,0,0
21569,1.52977E+12,0.66,1.15,0.63,0.49,,,0.03,-0.11,-0.99,3,0,0,3444,3.4,2.73,,68,22.01,25,,50.52,,,,,,,,,,,,,,,,,
21589,1.52977E+12,0.67,1.15,0.63,0.49,,,,,,,,,3452,3.3,,,,,,,50.52,,,,,,,,,,,,,,,,,
21609,1.52977E+12,0.67,1.15,0.62,0.49,,,0.05,-0.08,-1.01,3,0,0,3452,3.3,2.72,,67,22.01,25,,50.52,,,,,,,,,,,,,,,,,
21629,1.52977E+12,0.67,1.15,0.63,0.49,,,,,,,,,3452,3.3,,,,,,,50.52,,,,,,,,,,,,,,,,,
21649,1.52977E+12,0.66,1.15,0.62,0.49,,,0.06,-0.08,-0.99,3,0,0,3486,3.4,2.71,,67,22.01,25,,50.52,,,40.84642,-96.767502,5.16,0.027,1207.9,6,2,0.1,0,0,-1,0,0,0,0
21669,1.52977E+12,0.67,1.15,0.62,0.49,,,,,,,,,3486,3.4,,,,,,,51.27,,,,,,,,,,,,,,,,,
21689,1.52977E+12,0.66,1.15,0.63,0.49,,,0.02,-0.09,-1.01,3,0,0,3413,3.3,2.7,,67,22.01,25,,51.27,,,,,,,,,,,,,,,,,
21709,1.52977E+12,0.67,1.15,0.63,0.49,,,,,,,,,3413,3.3,,,,,,,51.27,,,,,,,,,,,,,,,,,
21729,1.52977E+12,0.67,1.15,0.63,0.49,,,0.04,-0.06,-0.96,3,0,0,3413,3.3,2.7,,67,22.01,25,,51.27,,,,,,,,,,,,,,,,,
21749,1.52977E+12,0.67,1.15,0.63,0.48,,,,,,,,,3479,3.3,,,,,,,51.27,,,40.846416,-96.767509,5.12,0.027,1208.6,6,2,0.1,0,0,-1,0,0,0,0
21769,1.52977E+12,0.66,1.15,0.62,0.49,,,0.02,-0.08,-1.01,3,1,0,3479,3.3,2.71,,67,22.01,25,,52.42,,,,,,,,,,,,,,,,,
21789,1.52977E+12,0.66,1.15,0.63,0.49,,,,,,,,,3468,3.3,,,,,,,52.42,,,,,,,,,,,,,,,,,
21809,1.52977E+12,0.67,1.14,0.63,0.49,,,0.06,-0.04,-1,3,0,0,3468,3.3,2.71,,67,22.01,25,,52.42,,,,,,,,,,,,,,,,,
21829,1.52977E+12,0.66,1.15,0.63,0.49,,,,,,,,,3468,3.3,,,,,,,52.42,,,,,,,,,,,,,,,,,
21849,1.52977E+12,0.66,1.15,0.63,0.49,,,0.03,-0.06,-1.02,3,1,0,3405,3.3,2.69,,67,22.01,25,,52.42,,,40.846416,-96.767509,5.08,0.027,1208.9,6,2,0.1,0,0,-1,0,0,0,0
21869,1.52977E+12,0.67,1.15,0.63,0.49,,,,,,,,,3405,3.3,,,,,,,52.02,,,,,,,,,,,,,,,,,
21889,1.52977E+12,0.67,1.15,0.63,0.49,,,0.03,-0.06,-1.01,3,1,0,3438,3.1,2.7,,67,22.01,25,,52.02,,,,,,,,,,,,,,,,,
21909,1.52977E+12,0.67,1.15,0.63,0.48,,,,,,,,,3438,3.1,,,,,,,52.02,,,,,,,,,,,,,,,,,
21929,1.52977E+12,0.67,1.15,0.63,0.49,,,0.05,-0.05,-1,3,0,0,3438,3.1,2.7,,67,22.01,25,,52.02,,,,,,,,,,,,,,,,,
21949,1.52977E+12,0.67,1.16,0.62,0.49,,,,,,,,,3431,3.2,,,,,,,52.02,,,40.846405,-96.767525,4.97,0.027,1201.6,6,2,0.1,0,0,-1,0,0,0,0
21969,1.52977E+12,0.67,1.15,0.63,0.49,,,0.02,-0.08,-1.03,3,1,0,3431,3.2,2.7,,67,22.01,25,,51.73,,,,,,,,,,,,,,,,,
21989,1.52977E+12,0.66,1.15,0.63,0.48,,,,,,,,,3466,3.1,,,,,,,51.73,,,,,,,,,,,,,,,,,
22009,1.52977E+12,0.67,1.15,0.63,0.49,,,0.04,-0.05,-1.01,3,1,0,3466,3.1,2.69,,66,22.01,25,,51.73,,,,,,,,,,,,,,,,,
22029,1.52977E+12,0.66,1.15,0.63,0.49,,,,,,,,,3466,3.1,,,,,,,51.73,,,,,,,,,,,,,,,,,
22049,1.52977E+12,0.67,1.15,0.62,0.49,14.46,,0.01,-0.07,-0.99,3,0,-1,3493,3.3,2.95,70,67,22.01,25,40,51.73,47,22,40.846405,-96.767532,5.18,0.027,1201.6,6,2,0.1,0,0,-1,0,0,0,0
22069,1.52977E+12,0.67,1.15,0.63,0.49,,,,,,,,,3493,3.3,,,,,,,52.8,,,,,,,,,,,,,,,,,
22089,1.52977E+12,0.67,1.15,0.63,0.49,,,0.03,-0.07,-1,3,0,0,3427,3.2,2.9,,67,22.01,25,,52.8,,,,,,,,,,,,,,,,,
22109,1.52977E+12,0.67,1.15,0.63,0.49,,,,,,,,,3427,3.2,,,,,,,52.8,,,,,,,,,,,,,,,,,
22129,1.52977E+12,0.67,1.13,0.63,0.49,,,0.01,-0.08,-0.96,3,0,-1,3427,3.2,2.9,,49,22.01,25,,52.8,,,,,,,,,,,,,,,,,
22149,1.52977E+12,0.67,1.15,0.63,0.49,,,,,,,,,3438,3.1,,,,,,,52.8,,,40.846405,-96.767532,4.97,0.027,1201.9,6,2,0.1,0,0,-1,0,0,0,0
22169,1.52977E+12,0.67,1.15,0.63,0.49,,,-0.01,-0.11,-1.01,3,0,-1,3438,3.1,3,,67,22.01,25,,51.98,,,,,,,,,,,,,,,,,
22189,1.52977E+12,0.67,1.15,0.63,0.49,,,,,,,,,3459,3.3,,,,,,,51.98,,,,,,,,,,,,,,,,,
22209,1.52977E+12,0.67,1.15,0.63,0.49,,,0.05,-0.08,-0.97,3,0,-1,3459,3.3,2.7,,67,22.01,25,,51.98,,,,,,,,,,,,,,,,,
22229,1.52977E+12,0.66,1.16,0.63,0.49,,,,,,,,,3459,3.3,,,,,,,51.98,,,,,,,,,,,,,,,,,
22249,1.52977E+12,0.67,1.16,0.63,0.49,,,0.05,-0.12,-1,3,1,0,3419,3.3,2.9,,67,22.01,25,,51.98,,,40.846401,-96.767532,4.96,0.027,1202.5,6,2,0.1,0,0,-1,0,0,0,0
22269,1.52977E+12,0.67,1.16,0.63,0.49,,,,,,,,,3419,3.3,,,,,,,51.23,,,,,,,,,,,,,,,,,
